hochschulkurzname,hochschulname,hochschultyp,traegerschaft,bundesland,anzahl_studierende,gruendungsjahr,promotionsrecht,habilitationsrecht,strasse,postleitzahl_hausanschrift,ort_hausanschrift,home_page,latitude,longitude
Aachen FH,Fachhochschule Aachen,Fachhochschulen / HAW,öffentlich-rechtlich,Nordrhein-Westfalen,14086,1971,False,False,Bayernallee 11,52066,Aachen,http://www.fh-aachen.de,50.7585018,6.101767428883322
Aachen TH,Rheinisch-Westfälische Technische Hochschule Aachen,Universitäten,öffentlich-rechtlich,Nordrhein-Westfalen,45527,1870,True,True,Templergraben 55,52062,Aachen,https://www.rwth-aachen.de,50.7761739,6.085848254770982
Aalen H,Hochschule Aalen - Technik und Wirtschaft,Fachhochschulen / HAW,öffentlich-rechtlich,Baden-Württemberg,4559,1962,False,False,Beethovenstraße 1,73430,Aalen,http://www.hs-aalen.de,48.8425279,10.081968660543538
Albstadt-Sigmaringen H,Hochschule Albstadt-Sigmaringen,Fachhochschulen / HAW,öffentlich-rechtlich,Baden-Württemberg,2666,1971,False,False,Anton-Günther-Straße 51,72488,Sigmaringen,www.hs-albsig.de,48.0910731,9.182825310992532
Alfter HfKuG,Alanus Hochschule für Kunst und Gesellschaft,Künstlerische Hochschulen,"privat, staatlich anerkannt",Nordrhein-Westfalen,1564,1973,True,False,Villestraße 3,53347,Alfter,https://www.alanus.edu/de/home,50.7089659,6.9958547350213065
Amberg-Weiden OTH,Ostbayerische Technische Hochschule Amberg-Weiden,Fachhochschulen / HAW,öffentlich-rechtlich,Bayern,4077,1994,True,False,Kaiser-Wilhelm-Ring 23,92224,Amberg,http://www.oth-aw.de/,49.454366199999996,11.847402115482414
Anhalt H,Hochschule Anhalt - Anhalt University of Applied Sciences,Fachhochschulen / HAW,öffentlich-rechtlich,Sachsen-Anhalt,7067,1991,True,False,Bernburger Straße 55,06366,Köthen,http://www.hs-anhalt.de,51.74936555,11.97612494812628
Ansbach H,Hochschule für angewandte Wissenschaften Ansbach,Fachhochschulen / HAW,öffentlich-rechtlich,Bayern,3898,1996,True,False,Residenzstraße 8,91522,Ansbach,http://www.hs-ansbach.de,49.28887445,10.55976933809508
Aschaffenburg TH,Technische Hochschule Aschaffenburg,Fachhochschulen / HAW,öffentlich-rechtlich,Bayern,3559,1995,False,False,Würzburger Straße 45,63743,Aschaffenburg,http://www.th-ab.de,49.9470166,9.165951087916003
Augsburg TH,Technische Hochschule Augsburg,Fachhochschulen / HAW,öffentlich-rechtlich,Bayern,7025,1710,False,False,An der Hochschule 1,86161,Augsburg,https://www.tha.de/,48.34542535,10.92090760196481
Augsburg U,Universität Augsburg,Universitäten,öffentlich-rechtlich,Bayern,19089,1970,True,True,Universitätsstraße 2,86159,Augsburg,http://www.uni-augsburg.de,48.342991049999995,10.89734064672265
Baden-Württemberg HRecht (Verw),Hochschule für Rechtspflege Schwetzingen,Verwaltungshochschule,öffentlich-rechtlich,Baden-Württemberg,716,1953,False,False,Karlsruher Straße 2,68723,Schwetzingen,"http://www.hfr-bw.de/pb/,Lde/Startseite",49.37770295,8.583018671580149
Baden-Württemberg HVerw/Finanzen(Verw),Hochschule für öffentliche Verwaltung und Finanzen Ludwigsburg,Verwaltungshochschule,öffentlich-rechtlich,Baden-Württemberg,2792,1999,False,False,Reuteallee 36,71634,Ludwigsburg,https://www.hs-ludwigsburg.de/,48.91024415,9.174084125820093
Baden-Württemberg HVerw (Verw),Hochschule für öffentliche Verwaltung Kehl,Verwaltungshochschule,öffentlich-rechtlich,Baden-Württemberg,1421,1971,False,False,Kinzigallee 1,77694,Kehl,https://www.hs-kehl.de/,48.56364565,7.825786876474558
Bad Homburg accadisFH,accadis Hochschule Bad Homburg,Fachhochschulen / HAW,"privat, staatlich anerkannt",Hessen,448,1980,False,False,SÜDCAMPUS Bad Homburg Am Weidenring 4,61352,Bad Homburg,https://www.accadis.com/contact.aspx,50.2210175,8.66171602333683
Bad Liebenzell IHL,Internationale Hochschule Liebenzell (IHL),Fachhochschulen / HAW,"privat, staatlich anerkannt",Baden-Württemberg,305,2011,False,False,Heinrich-Coerper-Weg 11,75378,Bad Liebenzell,http://www.ihl.eu,48.777550149999996,8.72211459002866
Bamberg U,Otto-Friedrich-Universität Bamberg,Universitäten,öffentlich-rechtlich,Bayern,10734,1647,True,True,Kapuzinerstr. 25,96047,Bamberg,http://www.uni-bamberg.de/,49.88869885,10.895634601666622
Bayreuth HfKiM,Hochschule für evangelische Kirchenmusik der Evangelisch-Lutherischen Kirche in Bayern,Künstlerische Hochschulen,"kirchlich, staatlich anerkannt",Bayern,26,2000,False,False,Wilhelminenstraße 9,95444,Bayreuth,http://www.hfk-bayreuth.de,49.94413155,11.577181363119331
Bayreuth U,Universität Bayreuth,Universitäten,öffentlich-rechtlich,Bayern,11924,1972,True,True,Universitätsstraße 30,95447,Bayreuth,http://www.uni-bayreuth.de,49.9233443,11.554145933508014
Berlin Akkon,Akkon-Hochschule,Fachhochschulen / HAW,"privat, staatlich anerkannt",Berlin,1406,2009,False,False,Colditzstraße 34-36,12099,Berlin,http://www.akkon-hochschule.de,52.4647344,13.403292769601151
Berlin ASH,Alice Salomon Hochschule Berlin,Fachhochschulen / HAW,öffentlich-rechtlich,Berlin,4299,1971,False,False,Alice-Salomon-Platz 5,12627,Berlin,http://www.ash-berlin.eu,52.53713195,13.610444765007331
Berlin bbw,bbw Hochschule,Fachhochschulen / HAW,"privat, staatlich anerkannt",Berlin,822,2007,False,False,Wagner-Régeny-Straße 21,12489,Berlin,http://www.bbw-hochschule.de,52.43807135,13.543502547747496
Berlin BC,"Bard College Berlin, A Liberal Arts University",Universitäten,"privat, staatlich anerkannt",Berlin,312,1999,False,False,Platanenstrasse 24,13156,Berlin,http://www.berlin.bard.edu,52.581411599999996,13.399532646180678
Berlin BHT,Berliner Hochschule für Technik,Fachhochschulen / HAW,öffentlich-rechtlich,Berlin,12296,1971,False,False,Luxemburger Str. 10,13353,Berlin,https://www.bht-berlin.de/,52.5427825,13.350397649628857
Berlin BIU,Berlin International University of Applied Sciences,Fachhochschulen / HAW,"privat, staatlich anerkannt",Berlin,530,2014,False,False,Salzufer 6,10587,Berlin,http://www.berlin-international.de/,52.51797165,13.318845601385824
Berlin BSA,Barenboim-Said Akademie,Künstlerische Hochschulen,"privat, staatlich anerkannt",Berlin,77,2016,False,False,Französische Straße 33D,10117,Berlin,www.barenboimsaid.de,52.5175184,13.38776860055452
Berlin BSP,BSP Business and Law School - Hochschule für Management und Recht,Fachhochschulen / HAW,"privat, staatlich anerkannt",Berlin,1750,2009,False,False,Calandrellistraße 1-9,12247,Berlin,https://www.businessschool-berlin.de/,52.4388914,13.347658711012084
Berlin CODE,CODE University of Applied Sciences,Fachhochschulen / HAW,"privat, staatlich anerkannt",Berlin,610,2017,False,False,Lohmühlenstr. 65,12435,Berlin,https://code.berlin/de/,52.485216050000005,13.476101227122792
Berlin DBU,Digital Business University of Applied Sciences,Fachhochschulen / HAW,"privat, staatlich anerkannt",Berlin,282,2018,False,False,Oranienstr. 185,10999,Berlin,https://dbuas.de/,52.497658900000005,13.423101651668746
Berlin DHGS,DHGS Deutsche Hochschule für Gesundheit und Sport,Fachhochschulen / HAW,"privat, staatlich anerkannt",Berlin,1865,2007,False,False,Franklinstr. 28-29,10587,Berlin,https://dhgs-hochschule.de,52.51797165,13.318845601385824
Berlin ESCP,ESCP Europe Wirtschaftshochschule Berlin e.V.,Universitäten,"privat, staatlich anerkannt",Berlin,1254,1819,True,False,Heubnerweg 8-10,14059,Berlin,http://www.escp.eu,52.520973850000004,13.288505865714662
Berlin ESMT,ESMT European School of Management and Technology,Universitäten,"privat, staatlich anerkannt",Berlin,820,2002,True,False,Schlossplatz 1,10178,Berlin,http://www.esmt.org/en/home,52.520297049999996,13.404734960423745
Berlin EvH,Evangelische Hochschule Berlin,Fachhochschulen / HAW,"kirchlich, staatlich anerkannt",Berlin,1696,1904,False,False,Teltower Damm 118-122,14167,Berlin,http://www.eh-berlin.de,52.42157845,13.27883356116847
Berlin FHTouro,Touro College Berlin,Fachhochschulen / HAW,"privat, staatlich anerkannt",Berlin,129,2003,False,False,Am Rupenhorn 5,14055,Berlin,http://www.touroberlin.de,52.50009835,13.21706211638391
Berlin FU,Freie Universität Berlin,Universitäten,öffentlich-rechtlich,Berlin,42090,1948,True,True,Kaiserswerther Str. 16-18,14195,Berlin,http://www.fu-berlin.de,52.4585754,13.284632870198381
Berlin Hertie,Hertie School,Universitäten,"privat, staatlich anerkannt",Berlin,716,2004,True,False,"Quartier 110, Friedrichstraße 180",10117,Berlin,https://www.hertie-school.org/en/,52.5175184,13.38776860055452
Berlin HfM,Hochschule für Musik Hanns Eisler Berlin,Künstlerische Hochschulen,öffentlich-rechtlich,Berlin,556,1950,False,False,Charlottenstraße 55,10117,Berlin,http://www.hfm-berlin.de,52.5175184,13.38776860055452
Berlin HfS,Hochschule für Schauspielkunst Ernst Busch,Künstlerische Hochschulen,öffentlich-rechtlich,Berlin,222,1905,False,False,Zinnowitzer Straße 11,10115,Berlin,http://www.hfs-berlin.de,52.5319539,13.383800929178934
Berlin HMKW,"HMKW Hochschule für Medien, Kommunikation und Wirtschaft",Fachhochschulen / HAW,"privat, staatlich anerkannt",Berlin,2038,2008,False,False,Ackerstraße 76,13355,Berlin,www.hmkw.de,52.541084049999995,13.389616039699296
Berlin HSAP,Hochschule für Soziale Arbeit und Pädagogik (HSAP) gemeinnützige Betriebsgesellschaft mbH,Fachhochschulen / HAW,"privat, staatlich anerkannt",Berlin,561,2013,False,False,Alt-Stralau 37-39,10245,Berlin,https://www.hsap.de,52.500398700000005,13.457894344423604
Berlin HTW,Hochschule für Technik und Wirtschaft Berlin,Fachhochschulen / HAW,öffentlich-rechtlich,Berlin,14523,1994,False,False,Treskowallee 8,10318,Berlin,https://www.htw-berlin.de,52.4830907,13.526339144837998
Berlin HU,Humboldt-Universität zu Berlin,Universitäten,öffentlich-rechtlich,Berlin,40144,1810,True,True,Unter den Linden 6,10117,Berlin,https://www.hu-berlin.de/de/service/kontakt/,52.5175184,13.38776860055452
Berlin HWR,Hochschule für Wirtschaft und Recht Berlin,Fachhochschulen / HAW,öffentlich-rechtlich,Berlin,11454,1971,False,False,Badensche Straße 52,10825,Berlin,https://www.hwr-berlin.de,52.4838539,13.340755182967287
Berlin IB,IB Hochschule für Gesundheit und Soziales,Fachhochschulen / HAW,"privat, staatlich anerkannt",Berlin,512,2006,False,False,Warener Str. 7 c/o BG Klinikum Unfallkrankenhaus Berlin gGmbH,12683,Berlin,https://www.ib-hochschule.de,52.5042429,13.55755287422944
Berlin IPU,International Psychoanalytic University Berlin,Universitäten,"privat, staatlich anerkannt",Berlin,872,2009,False,False,Stromstr. 3b,10555,Berlin,https://www.ipu-berlin.de,52.519881350000006,13.335536500236055
Berlin KHS,Katholische Hochschule für Sozialwesen Berlin (KHSB) - Staatlich anerkannte Fachhochschule für Sozialwesen,Fachhochschulen / HAW,"kirchlich, staatlich anerkannt",Berlin,1219,1991,False,False,Köpenicker Allee 39-57,10318,Berlin,http://www.khsb-berlin.de,52.4830907,13.526339144837998
Berlin MDH,Mediadesign Hochschule für Design und Informatik,Fachhochschulen / HAW,"privat, staatlich anerkannt",Berlin,751,2004,False,False,Franklinstraße 28 - 29,10587,Berlin,http://www.mediadesign.de,52.51797165,13.318845601385824
Berlin MSB,Medical School Berlin - Hochschule für Gesundheit und Medizin (MSB),Fachhochschulen / HAW,"privat, staatlich anerkannt",Berlin,2840,2012,False,False,Rüdesheimer Str. 50,14197,Berlin,www.medicalschool-berlin.de,52.4731866,13.310298461371033
Berlin PHB,Psychologische Hochschule Berlin (PHB),Universitäten,"privat, staatlich anerkannt",Berlin,731,2010,False,False,Am Köllnischen Park 2,10179,Berlin,http://www.psychologische-hochschule.de,52.51379,13.415241060706151
Berlin SRH,SRH Berlin University of Applied Sciences,Fachhochschulen / HAW,"privat, staatlich anerkannt",Berlin,2868,2002,False,False,Ernst-Reuter-Platz 10,10587,Berlin,https://www.srh-berlin.de/,52.51797165,13.318845601385824
Berlin TU,Technische Universität Berlin,Universitäten,öffentlich-rechtlich,Berlin,35101,1879,True,True,Straße des 17. Juni 135,10623,Berlin,http://www.tu.berlin,52.509442699999994,13.325736129236596
Berlin UdK,Universität der Künste Berlin,Künstlerische Hochschulen,öffentlich-rechtlich,Berlin,4191,1699,True,True,Einsteinufer 43,10587,Berlin,http://www.udk-berlin.de,52.51797165,13.318845601385824
Berlin VICTORIA,VICTORIA | Internationale Hochschule,Fachhochschulen / HAW,"privat, staatlich anerkannt",Berlin,586,2011,False,False,Bernburger Straße 24-25,10963,Berlin,https://www.victoria-hochschule.de/,52.5000594,13.38150429114823
Berlin-Weißensee KHB,weißensee kunsthochschule berlin,Künstlerische Hochschulen,öffentlich-rechtlich,Berlin,823,1946,False,False,Bühringstraße 20,13086,Berlin,http://www.kh-berlin.de,52.55712455,13.448277760058076
Biberach H,"Hochschule Biberach - Architektur und Bauwesen, Betriebswirtschaft und Biotechnologie",Fachhochschulen / HAW,öffentlich-rechtlich,Baden-Württemberg,2270,1964,False,False,Karlstraße 11,88400,Biberach,http://www.hochschule-biberach.de,48.08873715,9.797462747436814
Bielefeld FHDiakonie,Fachhochschule der Diakonie - Diaconia - University of Applied Sciences,Fachhochschulen / HAW,"kirchlich, staatlich anerkannt",Nordrhein-Westfalen,754,2006,False,False,Bethelweg 8,33617,Bielefeld,http://www.fh-diakonie.de,52.00732905,8.525444553199758
Bielefeld FHM,Fachhochschule des Mittelstands (FHM),Fachhochschulen / HAW,"privat, staatlich anerkannt",Nordrhein-Westfalen,5550,2000,False,False,Ravensberger Straße 10 G,33602,Bielefeld,http://www.fh-mittelstand.de/profil,52.022857200000004,8.533584902232988
Bielefeld H,Hochschule Bielefeld - University of Applied Sciences and Arts (HSBI),Fachhochschulen / HAW,öffentlich-rechtlich,Nordrhein-Westfalen,10538,1971,False,False,Interaktion 1,33619,Bielefeld,https://www.hsbi.de,52.04076675,8.457658234737316
Bielefeld U,Universität Bielefeld,Universitäten,öffentlich-rechtlich,Nordrhein-Westfalen,23539,1969,True,True,Universitätsstraße 25,33615,Bielefeld,http://www.uni-bielefeld.de/,52.034928750000006,8.50470476944917
Bingen TH,Technische Hochschule Bingen,Fachhochschulen / HAW,öffentlich-rechtlich,Rheinland-Pfalz,2433,1897,False,False,Berlinstraße 109,55411,Bingen,https://www.th-bingen.de/home/,49.946924800000005,7.926249569908727
Bochum EBZ,EBZ Business School - University of Applied Sciences,Fachhochschulen / HAW,"privat, staatlich anerkannt",Nordrhein-Westfalen,1114,2008,False,False,Springorumallee 20,44795,Bochum,https://www.ebz-business-school.de/,51.45267355,7.199498929154195
Bochum H,Hochschule Bochum - University of Applied Sciences,Fachhochschulen / HAW,öffentlich-rechtlich,Nordrhein-Westfalen,7695,1971,False,False,Am Hochschulcampus 1,44801,Bochum,http://www.hochschule-bochum.de,51.44369975,7.275029944237389
Bochum HGesundheit,Hochschule für Gesundheit - University of Applied Sciences,Fachhochschulen / HAW,öffentlich-rechtlich,Nordrhein-Westfalen,1808,2009,False,False,Gesundheitscampus 6-8,44801,Bochum,http://www.hs-gesundheit.de,51.44369975,7.275029944237389
Bochum Rheinland-Westfalen-Lippe EvH,Evangelische Hochschule Rheinland-Westfalen-Lippe,Fachhochschulen / HAW,"kirchlich, staatlich anerkannt",Nordrhein-Westfalen,2558,1971,False,False,Immanuel-Kant-Straße 18-20,44803,Bochum,http://www.evh-bochum.de,51.4691355,7.26187541470412
Bochum TH,Technische Hochschule Georg Agricola,Fachhochschulen / HAW,"privat, staatlich anerkannt",Nordrhein-Westfalen,2316,1816,False,False,Herner Straße 45,44787,Bochum,http://www.thga.de,51.48061895,7.220006291154673
Bochum U,Ruhr-Universität Bochum,Universitäten,öffentlich-rechtlich,Nordrhein-Westfalen,38939,1962,True,True,Universitätsstraße 150,44801,Bochum,http://www.ruhr-uni-bochum.de,51.44369975,7.275029944237389
Bonn HFinMan,Hochschule für Finanzwirtschaft & Management,Fachhochschulen / HAW,"privat, staatlich anerkannt",Nordrhein-Westfalen,710,2003,False,False,Simrockstraße 4,53113,Bonn,http://www.s-hochschule.de,50.720036,7.122213527087392
Bonn-Rhein-Sieg H,"Hochschule Bonn-Rhein-Sieg, University of Applied Sciences",Fachhochschulen / HAW,öffentlich-rechtlich,Nordrhein-Westfalen,9070,1995,False,False,Grantham-Allee 20,53757,Sankt Augustin,www.h-brs.de,50.76995325,7.1900982828405775
Bonn U,Rheinische Friedrich-Wilhelms-Universität Bonn,Universitäten,öffentlich-rechtlich,Nordrhein-Westfalen,34630,1818,True,True,Regina-Pacis-Weg 3,53113,Bonn,http://www.uni-bonn.de,50.720036,7.122213527087392
Brandenburg FHFinanz (Verw),Fachhochschule für Finanzen Brandenburg,Verwaltungshochschule,öffentlich-rechtlich,Brandenburg,978,1991,False,False,Schillerstraße 6,15711,Königs Wusterhausen,https://fhf.brandenburg.de/fhf/de/,52.28655165,13.621854195073801
Brandenburg FHPol (Verw),Fachhochschule der Polizei Brandenburg,Verwaltungshochschule,öffentlich-rechtlich,Brandenburg,763,1998,False,False,Bernauer Str. 146,16515,Oranienburg,https://hpolbb.de/,52.77117925,13.287802770035833
Brandenburg TH,Technische Hochschule Brandenburg,Fachhochschulen / HAW,öffentlich-rechtlich,Brandenburg,2217,1992,False,False,Magdeburger Straße 50,14770,Brandenburg,http://www.th-brandenburg.de,52.4059608,12.513016033524364
Braunschweig HBK,Hochschule für Bildende Künste Braunschweig,Künstlerische Hochschulen,öffentlich-rechtlich,Niedersachsen,931,1963,True,True,Johannes-Selenka-Platz 1,38118,Braunschweig,https://www.hbk-bs.de,52.259933000000004,10.501022674992623
Braunschweig TU,Technische Universität Carolo-Wilhelmina zu Braunschweig,Universitäten,öffentlich-rechtlich,Niedersachsen,16155,1745,True,True,Universitätsplatz 2,38106,Braunschweig,https://www.tu-braunschweig.de,52.280675200000005,10.535612619380952
Bremen CU,Constructor University,Universitäten,"privat, staatlich anerkannt",Bremen,1483,1999,True,False,Campus Ring 1,28759,Bremen,https://constructor.university/,53.168969000000004,8.6512615239109
Bremen FernFH,APOLLON Hochschule der Gesundheitswirtschaft,Fachhochschulen / HAW,"privat, staatlich anerkannt",Bremen,3365,2005,False,False,Universitätsallee 18,28359,Bremen,http://www.apollon-hochschule.de/redirect.php?id=32,53.102267499999996,8.864140996396923
Bremen H,Hochschule Bremen,Fachhochschulen / HAW,öffentlich-rechtlich,Bremen,8672,1982,False,False,Neustadtwall 30,28199,Bremen,http://www.hs-bremen.de,53.058201499999996,8.78191226820229
Bremen HfK,Hochschule für Künste Bremen,Künstlerische Hochschulen,öffentlich-rechtlich,Bremen,1011,1873,False,False,Am Speicher XI 8,28217,Bremen,http://www.hfk-bremen.de,53.0961375,8.776304329190356
Bremen U,Universität Bremen,Universitäten,öffentlich-rechtlich,Bremen,18335,1971,True,True,Bibliothekstraße 1,28359,Bremen,http://www.uni-bremen.de,53.102267499999996,8.864140996396923
Bremen VerwH (Verw),Hochschule für Öffentliche Verwaltung Bremen,Verwaltungshochschule,öffentlich-rechtlich,Bremen,648,1979,False,False,Doventorscontrescarpe 172c,28195,Bremen,www.hfoev.bremen.de,53.080774500000004,8.804503016108011
Bremerhaven H,Hochschule Bremerhaven,Fachhochschulen / HAW,öffentlich-rechtlich,Bremen,2816,1975,False,False,An der Karlstadt 8,27568,Bremerhaven,http://www.hs-bremerhaven.de,53.5679385,8.566120495703004
Brühl EUFH,"Europäische Fachhochschule Rhein/Erft, european university of applied sciences",Fachhochschulen / HAW,"privat, staatlich anerkannt",Nordrhein-Westfalen,2180,2001,False,False,Kaiserstraße 6,50321,Brühl,https://www.eufh.de,50.81810745,6.8895610088067905
Brühl HSBund (Verw),Hochschule des Bundes für öffentliche Verwaltung,Verwaltungshochschule,öffentlich-rechtlich,Nordrhein-Westfalen,9195,1979,False,False,Willy-Brandt-Straße 1,50321,Brühl,https://www.hsbund.de/,50.81810745,6.8895610088067905
Buxtehude FH,hochschule 21,Fachhochschulen / HAW,"privat, staatlich anerkannt",Niedersachsen,1067,2005,False,False,Harburger Straße 6,21614,Buxtehude,https://www.hs21.de,53.4611745,9.68717910663118
Chemnitz TU,Technische Universität Chemnitz,Universitäten,öffentlich-rechtlich,Sachsen,8380,1836,True,True,Straße der Nationen 62,09111,Chemnitz,http://www.tu-chemnitz.de,50.83466555,12.921896957974116
Clausthal TU,Technische Universität Clausthal,Universitäten,öffentlich-rechtlich,Niedersachsen,2753,1775,True,True,Adolph-Roemer-Straße 2 A,38678,Clausthal-Zellerfeld,https://www.tu-clausthal.de,51.81151935,10.31742014024083
Coburg H,Hochschule für angewandte Wissenschaften Coburg,Fachhochschulen / HAW,öffentlich-rechtlich,Bayern,4700,1814,False,False,Friedrich-Streib-Straße 2,96450,Coburg,http://www.hs-coburg.de,50.2603765,10.982065403742084
Cottbus-Senftenberg TU,Brandenburgische Technische Universität Cottbus-Senftenberg,Universitäten,öffentlich-rechtlich,Brandenburg,6587,2013,True,True,Platz der Dt. Einheit 1,03046,Cottbus,http://www.b-tu.de,51.760537049999996,14.310125021451874
Darmstadt EvH,Evangelische Hochschule Darmstadt (staatlich anerkannt) – Kirchliche Körperschaft des öffentlichen Rechts,Fachhochschulen / HAW,"kirchlich, staatlich anerkannt",Hessen,1333,1971,False,False,Zweifalltorweg 12,64293,Darmstadt,http://www.eh-darmstadt.de,49.88303245,8.6282758454485
Darmstadt FernH,Wilhelm Büchner Hochschule - Private Fernhochschule Darmstadt,Fachhochschulen / HAW,"privat, staatlich anerkannt",Hessen,4915,1997,False,False,Hilpertstr. 31,64295,Darmstadt,http://www.wb-fernstudium.de?referrer=hochschulkompass_portal,49.851086499999994,8.6077045019401
Darmstadt H,Hochschule Darmstadt,Fachhochschulen / HAW,öffentlich-rechtlich,Hessen,15474,1876,True,False,Schöfferstraße 3,64295,Darmstadt,http://www.h-da.de/,49.851086499999994,8.6077045019401
Darmstadt TU,Technische Universität Darmstadt,Universitäten,öffentlich-rechtlich,Hessen,24008,1877,True,True,Karolinenplatz 5,64289,Darmstadt,http://www.tu-darmstadt.de,49.8976512,8.682286602664922
Deggendorf TH,Technische Hochschule Deggendorf,Fachhochschulen / HAW,öffentlich-rechtlich,Bayern,8660,1994,False,False,Dieter-Görlitz-Platz 1,94469,Deggendorf,http://www.th-deg.de,48.84772825,12.972639629534562
Detmold HfM,Hochschule für Musik Detmold,Künstlerische Hochschulen,öffentlich-rechtlich,Nordrhein-Westfalen,637,1946,True,False,Neustadt 22,32756,Detmold,http://www.hfm-detmold.de/,51.936755149999996,8.869747022085079
Dortmund FH,Fachhochschule Dortmund,Fachhochschulen / HAW,öffentlich-rechtlich,Nordrhein-Westfalen,14371,1890,False,False,Sonnenstraße 96,44139,Dortmund,http://www.fh-dortmund.de,51.497067200000004,7.4582355149132695
Dortmund ISM,International School of Management,Fachhochschulen / HAW,"privat, staatlich anerkannt",Nordrhein-Westfalen,3444,1990,False,False,Otto-Hahn-Straße 19,44227,Dortmund,https://www.ism.de,51.46467605,7.415219065857367
Dortmund TU,Technische Universität Dortmund,Universitäten,öffentlich-rechtlich,Nordrhein-Westfalen,30013,1968,True,True,August-Schmidt-Straße 4,44227,Dortmund,http://www.tu-dortmund.de,51.46467605,7.415219065857367
Dresden DIU,DIU - Dresden International University GmbH,Universitäten,"privat, staatlich anerkannt",Sachsen,1283,2003,False,False,Freiberger Straße 37,01067,Dresden,https://www.di-uni.de/,51.060193600000005,13.711169198080734
Dresden EvH,Evangelische Hochschule Dresden,Fachhochschulen / HAW,"kirchlich, staatlich anerkannt",Sachsen,839,1991,False,False,Dürerstraße 25,01307,Dresden,www.ehs-dresden.de,51.052666099999996,13.769359095023507
Dresden HfBK,Hochschule für Bildende Künste Dresden,Künstlerische Hochschulen,öffentlich-rechtlich,Sachsen,555,1764,True,False,Güntzstraße 34,01307,Dresden,http://www.hfbk-dresden.de,51.052666099999996,13.769359095023507
Dresden HfKiM,Hochschule für Kirchenmusik der Evangelisch-Lutherischen Landeskirche Sachsens,Künstlerische Hochschulen,"kirchlich, staatlich anerkannt",Sachsen,24,1949,False,False,Käthe Kollwitz Ufer 97,01309,Dresden,http://www.kirchenmusik-dresden.de,51.0493044,13.79047582816632
Dresden HfM,Hochschule für Musik Carl Maria von Weber Dresden,Künstlerische Hochschulen,öffentlich-rechtlich,Sachsen,692,1856,True,False,Wettiner Platz 13,01067,Dresden,http://www.hfmdd.de,51.060193600000005,13.711169198080734
Dresden HfTanz,Palucca Hochschule für Tanz Dresden,Künstlerische Hochschulen,öffentlich-rechtlich,Sachsen,168,1925,False,False,Basteiplatz 4,01277,Dresden,http://www.palucca.eu,51.0374515,13.799844114622722
Dresden HTW,Hochschule für Technik und Wirtschaft Dresden  - University of Applied Sciences,Fachhochschulen / HAW,öffentlich-rechtlich,Sachsen,4634,1992,False,False,Friedrich-List-Platz 1,01069,Dresden,http://www.htw-dresden.de,51.03964315,13.730302822492835
Dresden PFH,Fachhochschule Dresden,Fachhochschulen / HAW,"privat, staatlich anerkannt",Sachsen,539,2010,False,False,Güntzstraße 1,01069,Dresden,https://www.fh-dresden.eu,51.03964315,13.730302822492835
Dresden TU,Technische Universität Dresden,Universitäten,öffentlich-rechtlich,Sachsen,28959,1828,True,True,Mommsenstraße 11,01069,Dresden,https://tu-dresden.de,51.03964315,13.730302822492835
Duisburg-Essen U,Universität Duisburg-Essen,Universitäten,öffentlich-rechtlich,Nordrhein-Westfalen,38001,2003,True,True,Universitätsstraße 2,45141,Essen,http://www.uni-due.de,51.47765855,7.035230389057875
Düsseldorf FliednerFH,Fliedner Fachhochschule Düsseldorf,Fachhochschulen / HAW,"privat, staatlich anerkannt",Nordrhein-Westfalen,2204,2011,False,False,Geschwister-Aufricht-Straße 9,40489,Düsseldorf,http://www.fliedner-fachhochschule.de,51.31942975,6.775134509449771
Düsseldorf H,Hochschule Düsseldorf,Fachhochschulen / HAW,öffentlich-rechtlich,Nordrhein-Westfalen,11172,1971,False,False,Münsterstraße 156,40476,Düsseldorf,https://www.hs-duesseldorf.de/studienangebot,51.2497334,6.782641553282078
Düsseldorf HfM,Robert-Schumann-Hochschule Düsseldorf,Künstlerische Hochschulen,öffentlich-rechtlich,Nordrhein-Westfalen,837,1935,True,False,Fischerstraße 110,40476,Düsseldorf,http://www.rsh-duesseldorf.de,51.2497334,6.782641553282078
Düsseldorf IST,IST-Hochschule für Management,Fachhochschulen / HAW,"privat, staatlich anerkannt",Nordrhein-Westfalen,4278,2012,False,False,Erkrather Str. 220 a-c,40233,Düsseldorf,https://www.ist-hochschule.de,51.2212449,6.813642387578902
Düsseldorf KuAk,Kunstakademie Düsseldorf,Künstlerische Hochschulen,öffentlich-rechtlich,Nordrhein-Westfalen,546,1814,True,False,Eiskellerstraße 1,40213,Düsseldorf,http://www.kunstakademie-duesseldorf.de,51.2239304,6.77234977660277
Düsseldorf U,Heinrich-Heine-Universität Düsseldorf,Universitäten,öffentlich-rechtlich,Nordrhein-Westfalen,29218,1965,True,True,Universitätsstraße 1,40225,Düsseldorf,http://www.hhu.de,51.19524065,6.793096558889756
Eberswalde H,Hochschule für nachhaltige Entwicklung Eberswalde,Fachhochschulen / HAW,öffentlich-rechtlich,Brandenburg,2297,1830,False,False,Schicklerstr. 5,16225,Eberswalde,https://www.hnee.de/,52.8293634,13.83842277295783
Eichstätt - Ingolstadt U,Katholische Universität Eichstätt - Ingolstadt,Universitäten,"kirchlich, staatlich anerkannt",Bayern,4800,1980,True,True,Ostenstraße 26,85072,Eichstätt,http://www.ku.de,48.88633275,11.198939616989978
Elmshorn FH Nordakademie,NORDAKADEMIE Hochschule der Wirtschaft,Fachhochschulen / HAW,"privat, staatlich anerkannt",Schleswig-Holstein,2481,1992,False,False,Köllner Chaussee 11,25337,Elmshorn,https://www.nordakademie.de,53.746547899999996,9.70956795093827
Elstal ThH,Theologische Hochschule Elstal,Fachhochschulen / HAW,"kirchlich, staatlich anerkannt",Brandenburg,39,1880,False,False,Johann-Gerhard-Oncken-Straße 7,14641,Wustermark,http://www.th-elstal.de/,52.6124679,12.811209862811966
Emden/Leer H,Hochschule Emden/Leer,Fachhochschulen / HAW,öffentlich-rechtlich,Niedersachsen,4264,2009,False,False,Constantiaplatz 4,26723,Emden,http://www.hs-emden-leer.de/,53.36583865,7.138975617826522
Erfurt FH,Fachhochschule Erfurt,Fachhochschulen / HAW,öffentlich-rechtlich,Thüringen,4063,1991,False,False,Altonaer Straße 25,99085,Erfurt,http://www.fh-erfurt.de,50.99992535,11.054975987585859
Erfurt HMU,HMU Health and Medical University,Hochschulen eigenen Typs,"privat, staatlich anerkannt",Thüringen,1433,2019,False,False,Nordhäuser Straße 74,99089,Erfurt,https://www.health-and-medical-university.de,50.997794049999996,11.013601481695362
Erfurt IU,IU Internationale Hochschule,Fachhochschulen / HAW,"privat, staatlich anerkannt",Thüringen,116027,1998,False,False,Juri-Gagarin-Ring 152,99084,Erfurt,https://www.iu.de/,50.9761491,11.027044938641687
Erfurt U,Universität Erfurt,Universitäten,öffentlich-rechtlich,Thüringen,5795,1994,True,True,Nordhäuser Straße 63,99089,Erfurt,http://www.uni-erfurt.de,50.997794049999996,11.013601481695362
Erlangen-Nürnberg U,Friedrich-Alexander-Universität Erlangen-Nürnberg,Universitäten,öffentlich-rechtlich,Bayern,38960,1743,True,True,Schlossplatz 4,91054,Erlangen,http://www.fau.de,49.60293755,11.020958161231558
Essen FOM,FOM Hochschule für Oekonomie & Management - University of Applied Sciences,Fachhochschulen / HAW,"privat, staatlich anerkannt",Nordrhein-Westfalen,47191,1993,False,False,Leimkugelstraße 6,45141,Essen,https://www.fom.de,51.47765855,7.035230389057875
Essen HBK,Hochschule der bildenden Künste (HBK) Essen,Künstlerische Hochschulen,"privat, staatlich anerkannt",Nordrhein-Westfalen,322,2013,False,False,Prinz-Friedrich-Str. 28 A,45257,Essen,http://hbk-essen.de/,51.386360999999994,7.088177022014726
Essen UdK,Folkwang Universität der Künste,Künstlerische Hochschulen,öffentlich-rechtlich,Nordrhein-Westfalen,1625,1927,True,True,Klemensborn 39,45239,Essen,http://www.folkwang-uni.de,51.3817606,7.006142632471238
Esslingen H,Hochschule Esslingen,Fachhochschulen / HAW,öffentlich-rechtlich,Baden-Württemberg,6594,1868,False,False,Kanalstraße 33,73728,Esslingen,http://www.hs-esslingen.de,48.7409931,9.306045177067606
Ewersbach ThH,Theologisches Hochschule Ewersbach,Fachhochschulen / HAW,"kirchlich, staatlich anerkannt",Hessen,47,1912,False,False,Jahnstraße 49-53,35716,Dietzhölztal,http://th-ewersbach.de,50.8485885,8.292896344621663
Flensburg H,Hochschule Flensburg,Fachhochschulen / HAW,öffentlich-rechtlich,Schleswig-Holstein,3355,1886,False,False,Kanzleistraße 91-93,24943,Flensburg,http://www.hs-flensburg.de,54.78414385000001,9.473561497507088
Flensburg U,Europa-Universität Flensburg,Universitäten,öffentlich-rechtlich,Schleswig-Holstein,5998,1946,True,True,Auf dem Campus 1,24943,Flensburg,http://www.uni-flensburg.de,54.78414385000001,9.473561497507088
Frankfurt am Main FH,Frankfurt University of Applied Sciences,Fachhochschulen / HAW,öffentlich-rechtlich,Hessen,15297,1971,True,False,Nibelungenplatz 1,60318,Frankfurt am Main,www.frankfurt-university.de,50.124688649999996,8.68652544754162
Frankfurt am Main FHProvadis,Provadis School of International Management and Technology,Fachhochschulen / HAW,"privat, staatlich anerkannt",Hessen,870,2003,False,False,Rudolf-Amthauer-Straße,65926,Frankfurt am Main,http://www.provadis-hochschule.de/,50.08429,8.5467874
Frankfurt am Main FSFM,Frankfurt School of Finance & Management,Universitäten,"privat, staatlich anerkannt",Hessen,4381,1990,True,False,Adickesallee 32-34,60322,Frankfurt am Main,http://www.frankfurt-school.de/home,50.12469085,8.676296762012985
Frankfurt am Main HfBK,Hochschule für Bildende Künste (Städelschule),Künstlerische Hochschulen,öffentlich-rechtlich,Hessen,140,1817,False,False,Dürerstraße 10,60596,Frankfurt am Main,http://www.staedelschule.de,50.097374450000004,8.67108367545128
Frankfurt am Main HfM,Hochschule für Musik und Darstellende Kunst Frankfurt am Main,Künstlerische Hochschulen,öffentlich-rechtlich,Hessen,971,1878,True,False,Eschersheimer Landstraße 29-39,60322,Frankfurt am Main,https://www.hfmdk-frankfurt.de,50.12469085,8.676296762012985
Frankfurt am Main PhThH,Philosophisch-Theologische Hochschule Sankt Georgen Frankfurt am Main,Universitäten,"kirchlich, staatlich anerkannt",Hessen,221,1926,True,True,Offenbacher Landstraße 224,60599,Frankfurt am Main,http://www.sankt-georgen.de,50.082684900000004,8.712545656021826
Frankfurt am Main U,"Johann Wolfgang Goethe-Universität, Frankfurt am Main",Universitäten,öffentlich-rechtlich,Hessen,41107,1914,True,True,Theodor-W.-Adorno-Platz 1,60323,Frankfurt am Main,http://www.uni-frankfurt.de,50.12380455,8.66179047387983
Frankfurt am Main UoL,University of Labour,Fachhochschulen / HAW,"privat, staatlich anerkannt",Hessen,17,2021,False,False,Eschersheimer Landstr. 155-157,60323,Frankfurt am Main,https://www.university-of-labour.de/,50.12380455,8.66179047387983
Frankfurt (Oder) U,Europa-Universität Viadrina Frankfurt (Oder),Universitäten,öffentlich-rechtlich,Brandenburg,4230,1991,True,True,Große Scharrnstraße 59,15230,Frankfurt (Oder),https://www.europa-uni.de,52.336540049999996,14.554393780692156
Freiberg TUBergAk,Technische Universität Bergakademie Freiberg,Universitäten,öffentlich-rechtlich,Sachsen,4199,1765,True,True,Akademiestraße 6,09599,Freiberg,http://tu-freiberg.de,50.917197900000005,13.339400646973571
Freiburg EvHS,"Evangelische Hochschule Freiburg, staatlich anerkannte Hochschule der Evangelischen Landeskirche in Baden",Fachhochschulen / HAW,"kirchlich, staatlich anerkannt",Baden-Württemberg,898,1971,False,False,Bugginger Straße 38,79114,Freiburg,https://www.eh-freiburg.de,47.99824115,7.80779986551682
Freiburg HfM,Hochschule für Musik Freiburg im Breisgau,Künstlerische Hochschulen,öffentlich-rechtlich,Baden-Württemberg,627,1946,True,True,Mendelssohn-Bartholdy-Platz 1,79102,Freiburg,https://www.mh-freiburg.de,47.98671215,7.860681741846605
Freiburg KathHS,"Katholische Hochschule Freiburg, staatlich anerkannte Hochschule - Catholic University of Applied Sciences",Fachhochschulen / HAW,"kirchlich, staatlich anerkannt",Baden-Württemberg,1886,1971,False,False,Karlstraße 63,79104,Freiburg,www.kh-freiburg.de,48.0105793,7.880673077986286
Freiburg PH,Pädagogische Hochschule Freiburg,Universitäten,öffentlich-rechtlich,Baden-Württemberg,5013,1962,True,True,Kunzenweg 21,79117,Freiburg,http://www.ph-freiburg.de,47.96398895,7.900940010827744
Freiburg U,Albert-Ludwigs-Universität Freiburg im Breisgau,Universitäten,öffentlich-rechtlich,Baden-Württemberg,24197,1457,True,True,Fahnenbergplatz,79085,Freiburg,https://www.uni-freiburg.de,47.9959,7.8522
Friedensau ThH,Theologische Hochschule Friedensau,Universitäten,"kirchlich, staatlich anerkannt",Sachsen-Anhalt,224,1899,False,False,An der Ihle 19,39291,Friedensau,https://www.thh-friedensau.de/,52.1920736,12.037671198298263
Friedrichshafen ZU,"Zeppelin Universität - Hochschule zwischen Wirtschaft, Kultur und Politik",Universitäten,"privat, staatlich anerkannt",Baden-Württemberg,667,2003,True,True,Am Seemoser Horn 20,88045,Friedrichshafen,http://www.zu.de,47.6650116,9.46165649676518
Fulda H,Hochschule Fulda - University of Applied Sciences,Fachhochschulen / HAW,öffentlich-rechtlich,Hessen,8963,1974,True,False,Leipziger Straße 123,36037,Fulda,www.hs-fulda.de,50.55848055,9.688378956866607
Fulda ThFak,Theologische Fakultät Fulda,Universitäten,"kirchlich, staatlich anerkannt",Hessen,13,1734,True,True,Eduard-Schick-Platz 2,36037,Fulda,http://www.thf-fulda.de,50.55848055,9.688378956866607
Furtwangen H,"Hochschule Furtwangen - Informatik, Technik, Wirtschaft, Medien, Gesundheit",Fachhochschulen / HAW,öffentlich-rechtlich,Baden-Württemberg,4833,1850,False,False,Robert-Gerwig-Platz 1,78120,Furtwangen,http://www.hs-furtwangen.de,48.04776715,8.222916875289414
Geisenheim H,Hochschule Geisenheim,Hochschulen eigenen Typs,öffentlich-rechtlich,Hessen,1723,2013,True,False,Von-Lade-Straße 1,65366,Geisenheim,http://www.hs-geisenheim.de,50.03623295,7.940647495451144
Gera-Eisenach DH,Duale Hochschule Gera-Eisenach,Hochschulen eigenen Typs,öffentlich-rechtlich,Thüringen,1395,2016,False,False,Weg der Freundschaft 4,07546,Gera,https://www.dhge.de/,50.8889431,12.098714610333897
Gera H,SRH Hochschule für Gesundheit,Fachhochschulen / HAW,"privat, staatlich anerkannt",Thüringen,1434,2007,False,False,Neue Straße 28 - 30,07548,Gera,https://www.srh-gesundheitshochschule.de/,50.88059455,12.038801259357676
Giessen FThH,Freie Theologische Hochschule Gießen,Fachhochschulen / HAW,"privat, staatlich anerkannt",Hessen,191,1974,False,False,Rathenaustraße 5-7,35394,Gießen,http://www.fthgiessen.de,50.5775634,8.712823978101909
Giessen U,Justus-Liebig-Universität Gießen,Universitäten,öffentlich-rechtlich,Hessen,25461,1607,True,True,Ludwigstraße 23,35390,Gießen,http://www.uni-giessen.de,50.5879221,8.67665858322707
Göttingen PFH,PFH - Private Hochschule Göttingen,Fachhochschulen / HAW,"privat, staatlich anerkannt",Niedersachsen,4775,1995,False,False,Weender Landstr. 3-7,37073,Göttingen,www.pfh.de,51.53769405,9.938134566376148
Göttingen U,Georg-August-Universität Göttingen,Universitäten,öffentlich-rechtlich,Niedersachsen,27562,1737,True,True,Wilhelmsplatz 1,37073,Göttingen,http://www.uni-goettingen.de,51.53769405,9.938134566376148
Greifswald U,Universität Greifswald,Universitäten,öffentlich-rechtlich,Mecklenburg-Vorpommern,10296,1456,True,True,Domstraße 11,17489,Greifswald,http://www.uni-greifswald.de,54.08374285,13.359941775539475
Hachenburg HBundesbank (Verw),Hochschule der Deutschen Bundesbank,Verwaltungshochschule,öffentlich-rechtlich,Rheinland-Pfalz,408,1980,False,False,Schloss,57627,Hachenburg,http://www.hochschule-bundesbank.de,50.64359155,7.824354586610591
Hagen FernU,FernUniversität in Hagen,Universitäten,öffentlich-rechtlich,Nordrhein-Westfalen,63326,1974,True,True,Universitätsstraße 47,58097,Hagen,https://www.fernuni-hagen.de,51.370102349999996,7.479911909166301
Halle HfKiM,Evangelische Hochschule für Kirchenmusik,Künstlerische Hochschulen,"kirchlich, staatlich anerkannt",Sachsen-Anhalt,59,1926,False,False,Kleine Ulrichstraße 35,06108,Halle,http://www.ehk-halle.de,51.490435149999996,11.962850126063312
Halle KuH,Burg Giebichenstein Kunsthochschule Halle,Künstlerische Hochschulen,öffentlich-rechtlich,Sachsen-Anhalt,1194,1915,True,False,Neuwerk 7,06108,Halle,http://www.burg-halle.de,51.490435149999996,11.962850126063312
Halle-Wittenberg U,Martin-Luther-Universität Halle-Wittenberg,Universitäten,öffentlich-rechtlich,Sachsen-Anhalt,19227,1502,True,True,Universitätsplatz 11,06108,Halle,www.uni-halle.de,51.490435149999996,11.962850126063312
Hamburg AkFinanz (Verw),Norddeutsche Akademie für Finanzen und Steuerrecht,Verwaltungshochschule,öffentlich-rechtlich,Hamburg,349,2010,False,False,Hammer Steindamm 129,20535,Hamburg,https://www.hamburg.de/fb/norddeutsche-akademie-fuer-finanzen-und-steuerrecht-hamburg/,53.5593439,10.050219910567282
Hamburg AkPol (Verw),Akademie der Polizei Hamburg,Verwaltungshochschule,öffentlich-rechtlich,Hamburg,582,2013,False,False,Carl-Cohn-Straße 39,22297,Hamburg,https://akademie-der-polizei.hamburg.de/fachhochschulbereich,53.60751465,10.01298719354726
Hamburg BHH,Berufliche Hochschule Hamburg (BHH),Hochschulen eigenen Typs,öffentlich-rechtlich,Hamburg,219,2020,False,False,Anckelmannstraße 10,20537,Hamburg,https://bhh.hamburg.de/,53.54780075,10.04968109378143
Hamburg BLS,"Bucerius Law School, Hochschule für Rechtswissenschaft",Universitäten,"privat, staatlich anerkannt",Hamburg,849,2000,True,True,Jungiusstraße 6,20355,Hamburg,https://www.law-school.de,53.5565531,9.979856200587182
Hamburg EFH,Europäische Fernhochschule Hamburg,Fachhochschulen / HAW,"privat, staatlich anerkannt",Hamburg,9646,2003,False,False,Doberaner Weg 20-22,22143,Hamburg,http://www.euro-fh.de,53.605676,10.166847866387958
Hamburg EvH,Evangelische Hochschule für Soziale Arbeit & Diakonie,Fachhochschulen / HAW,"kirchlich, staatlich anerkannt",Hamburg,731,1971,False,False,Horner Weg 170,22111,Hamburg,http://www.ev-hochschule-hh.de,53.549611299999995,10.081882477300429
Hamburg FernH,"Hamburger Fern-Hochschule, gemeinnützige GmbH",Fachhochschulen / HAW,"privat, staatlich anerkannt",Hamburg,14144,1997,False,False,Alter Teichweg 19,22081,Hamburg,https://www.hfh-fernstudium.de,53.574980749999995,10.046372049155416
Hamburg FHBrand,Brand University of Applied Sciences,Fachhochschulen / HAW,"privat, staatlich anerkannt",Hamburg,314,2010,False,False,Lilienstraße 5-9,20095,Hamburg,https://www.brand-university.de/,53.55128685,9.999221586534006
Hamburg HAW,Hochschule für Angewandte Wissenschaften Hamburg,Fachhochschulen / HAW,öffentlich-rechtlich,Hamburg,16877,1970,False,False,Berliner Tor 5,20099,Hamburg,https://www.haw-hamburg.de,53.55797725,10.0110185430166
Hamburg HCU,HafenCity Universität Hamburg,Universitäten,öffentlich-rechtlich,Hamburg,2518,2006,True,True,Henning-Voscherau-Platz 1,20457,Hamburg,http://www.hcu-hamburg.de,53.53353765,9.980628448813693
Hamburg HfBK,Hochschule für Bildende Künste Hamburg,Künstlerische Hochschulen,öffentlich-rechtlich,Hamburg,976,1767,True,False,Lerchenfeld 2,22081,Hamburg,http://www.hfbk-hamburg.de,53.574980749999995,10.046372049155416
Hamburg HfM,Hochschule für Musik und Theater Hamburg,Künstlerische Hochschulen,öffentlich-rechtlich,Hamburg,1380,1950,True,False,Harvestehuder Weg 12,20148,Hamburg,http://www.hfmt-hamburg.de,53.56753755,9.997465697306026
Hamburg HSBA,HSBA Hamburg School of Business Administration,Fachhochschulen / HAW,"privat, staatlich anerkannt",Hamburg,928,2004,False,False,Willy-Brandt-Straße 75,20459,Hamburg,http://www.hsba.de,53.5463124,9.978656437193713
Hamburg KLU,Kühne Logistics University - Wissenschaftliche Hochschule für Logistik und Unternehmensführung,Universitäten,"privat, staatlich anerkannt",Hamburg,309,2010,True,False,Großer Grasbrook 17,20457,Hamburg,www.klu.org,53.53353765,9.980628448813693
Hamburg MSH,MSH Medical School Hamburg - University of Applied Sciences and Medical University,Hochschulen eigenen Typs,"privat, staatlich anerkannt",Hamburg,4845,2009,False,False,Am Kaiserkai 1,20457,Hamburg,http://www.medicalschool-hamburg.de,53.53353765,9.980628448813693
Hamburg NBS,NBS Northern Business School – University of Applied Sciences,Fachhochschulen / HAW,"privat, staatlich anerkannt",Hamburg,914,2007,False,False,Holstenhofweg 62,22043,Hamburg,http://www.nbs.de,53.57066655,10.113899703809619
Hamburg TU,Technische Universität Hamburg,Universitäten,öffentlich-rechtlich,Hamburg,7384,1978,True,True,Am Schwarzenberg-Campus 3 (E),21073,Hamburg,http://www.tuhh.de/,53.4583753,9.973050355224753
Hamburg U,Universität Hamburg,Universitäten,öffentlich-rechtlich,Hamburg,41802,1919,True,True,Mittelweg 177,20148,Hamburg,http://www.uni-hamburg.de,53.56753755,9.997465697306026
Hamburg UBw,Helmut-Schmidt-Universität/Universität der Bundeswehr Hamburg,Universitäten,öffentlich-rechtlich,Hamburg,2546,1972,True,True,Holstenhofweg 85,22043,Hamburg,http://www.hsu-hh.de,53.57066655,10.113899703809619
Hamm-Lippstadt H,Hochschule Hamm-Lippstadt,Fachhochschulen / HAW,öffentlich-rechtlich,Nordrhein-Westfalen,5134,2009,False,False,Marker Allee 76-78,59063,Hamm,http://www.hshl.de,51.67203945,7.837509530064095
Hannover FHDW,Fachhochschule für die Wirtschaft Hannover,Fachhochschulen / HAW,"privat, staatlich anerkannt",Niedersachsen,569,1996,False,False,Freundallee 15,30173,Hannover,http://www.fhdw-hannover.de/,52.357700550000004,9.762291208299299
Hannover H,Hochschule Hannover,Fachhochschulen / HAW,öffentlich-rechtlich,Niedersachsen,8891,1971,False,False,Expo Plaza 4,30539,Hannover,https://www.hs-hannover.de,52.3301018,9.844701348498123
Hannover HfMTM,"Hochschule für Musik, Theater und Medien Hannover",Künstlerische Hochschulen,öffentlich-rechtlich,Niedersachsen,1395,1897,True,True,Neues Haus 1,30175,Hannover,http://www.hmtm-hannover.de,52.3798539,9.76852846603604
Hannover LeibnizFH,Leibniz-Fachhochschule,Fachhochschulen / HAW,"privat, staatlich anerkannt",Niedersachsen,584,1920,False,False,Expo Plaza 11,30539,Hannover,http://www.leibniz-fh.de,52.3301018,9.844701348498123
Hannover MedH,Medizinische Hochschule Hannover (MHH),Universitäten,öffentlich-rechtlich,Niedersachsen,3923,1963,True,True,Carl-Neuberg-Str. 1,30625,Hannover,http://www.mh-hannover.de,52.3767893,9.804498156568105
Hannover TiHo,Stiftung Tierärztliche Hochschule Hannover,Universitäten,öffentlich-rechtlich,Niedersachsen,2347,1778,True,True,Bünteweg 2,30559,Hannover,http://www.tiho-hannover.de,52.3639883,9.848507094130522
Hannover U,Gottfried Wilhelm Leibniz Universität Hannover,Universitäten,öffentlich-rechtlich,Niedersachsen,27323,1831,True,True,Welfengarten 1,30167,Hannover,http://www.uni-hannover.de,52.385172,9.716371119062575
Harz H,"Hochschule Harz, Hochschule für angewandte Wissenschaften (FH)",Fachhochschulen / HAW,öffentlich-rechtlich,Sachsen-Anhalt,3017,1991,True,False,Friedrichstraße 57-59,38855,Wernigerode,http://www.hs-harz.de,51.86079815,10.819947227615105
Heidelberg H,SRH Hochschule Heidelberg - Staatlich anerkannte Fachhochschule,Fachhochschulen / HAW,"privat, staatlich anerkannt",Baden-Württemberg,3112,1969,False,False,Ludwig-Guttmann-Str. 6,69123,Heidelberg,http://www.hochschule-heidelberg.de/?utm_source=WKZ-HD5003AA04,49.41779435,8.61412255587216
Heidelberg HfJS,Hochschule für Jüdische Studien Heidelberg,Universitäten,"privat, staatlich anerkannt",Baden-Württemberg,105,1979,True,False,Landfriedstraße 12,69117,Heidelberg,http://www.hfjs.eu,49.3938242,8.721768238262754
Heidelberg HfKiM,Hochschule für Kirchenmusik der Evangelischen Landeskirche in Baden,Künstlerische Hochschulen,"kirchlich, staatlich anerkannt",Baden-Württemberg,44,1931,False,False,Hildastr. 8,69115,Heidelberg,http://www.hfk-heidelberg.de,49.402372799999995,8.679834225979866
Heidelberg HFresen,Hochschule Fresenius Heidelberg – staatlich anerkannte Hochschule der Hochschule Fresenius für Internationales Management GmbH,Fachhochschulen / HAW,"privat, staatlich anerkannt",Baden-Württemberg,672,2012,False,False,Sickingenstraße 63-65,69126,Heidelberg,https://www.hs-fresenius.de/standort/heidelberg/?crmid=aBbWvOcDeBjAaAaA,49.3773204,8.701597679159523
Heidelberg PH,Pädagogische Hochschule Heidelberg,Universitäten,öffentlich-rechtlich,Baden-Württemberg,5271,1904,True,True,Keplerstraße 87,69120,Heidelberg,http://www.ph-heidelberg.de,49.41862755,8.690262802038525
Heidelberg U,Ruprecht-Karls-Universität Heidelberg,Universitäten,öffentlich-rechtlich,Baden-Württemberg,29534,1386,True,True,Seminarstraße 2,69117,Heidelberg,http://www.uni-heidelberg.de,49.3938242,8.721768238262754
Heilbronn H,"Hochschule Heilbronn, Technik, Wirtschaft, Informatik",Fachhochschulen / HAW,öffentlich-rechtlich,Baden-Württemberg,7159,1961,False,False,Max-Planck-Straße 39,74081,Heilbronn,http://www.hs-heilbronn.de,49.1130886,9.19601187805391
Herford HfKiM,Hochschule für Kirchenmusik der Evangelischen Kirche von Westfalen,Künstlerische Hochschulen,"kirchlich, staatlich anerkannt",Nordrhein-Westfalen,46,1948,False,False,Parkstr. 6,32049,Herford,https://www.hochschule-kirchenmusik.de,52.1329377,8.708363667755814
Hermannsburg FIT,Fachhochschule für Interkulturelle Theologie Hermannsburg,Fachhochschulen / HAW,"privat, staatlich anerkannt",Niedersachsen,78,2012,False,False,Missionsstraße 3-5,29320,Hermannsburg,http://www.fh-hermannsburg.de/,52.8297774,10.111190617035199
Hessen HFinanz/Recht (Verw),Hessische Hochschule für Finanzen und Rechtspflege Rotenburg a.d. Fulda,Verwaltungshochschule,öffentlich-rechtlich,Hessen,2610,2006,False,False,Josef-Durstewitz Straße 2-6,36199,Rotenburg,https://studienzentrum-rotenburg.hessen.de/hhfr,51.0162386,9.739212990539299
Hessen HOeffManagement(Verw),Hessische Hochschule für öffentliches Management und Sicherheit,Verwaltungshochschule,öffentlich-rechtlich,Hessen,4271,2022,False,False,Schönbergstraße 100,65199,Wiesbaden,https://hoems.hessen.de/,50.09054965,8.163552654443876
Hildesheim U,Universität Hildesheim,Universitäten,öffentlich-rechtlich,Niedersachsen,7995,1978,True,True,Universitätsplatz 1,31141,Hildesheim,https://www.uni-hildesheim.de,52.1287914,9.98821276613709
Hildesh./Holzm./Göttingen H,HAWK Hochschule für angewandte Wissenschaft und Kunst Hildesheim/Holzminden/Göttingen,Fachhochschulen / HAW,öffentlich-rechtlich,Niedersachsen,6325,1971,False,False,Hohnsen 4,31134,Hildesheim,https://www.hawk.de/de,52.1426466,9.952535684036963
Hof H,Hochschule für angewandte Wissenschaften Hof,Fachhochschulen / HAW,öffentlich-rechtlich,Bayern,3822,1994,False,False,Alfons-Goppel-Platz 1,95028,Hof,http://www.hof-university.de,50.324146400000004,11.935875809591519
Hohenheim U,Universität Hohenheim,Universitäten,öffentlich-rechtlich,Baden-Württemberg,8482,1818,True,True,Schloss Hohenheim 1,70599,Stuttgart,http://www.uni-hohenheim.de,48.71862925,9.200575778149734
Idstein HFresen,Hochschule Fresenius,Fachhochschulen / HAW,"privat, staatlich anerkannt",Hessen,16028,1848,False,False,Limburger Straße 2,65510,Idstein,https://www.hs-fresenius.de/studienberatung/?crmid=aBbWvOcDaAaAaAaA,50.23217165,8.219092712816558
Ilmenau TU,Technische Universität Ilmenau,Universitäten,öffentlich-rechtlich,Thüringen,4452,1894,True,True,Ehrenbergstraße 29,98693,Ilmenau,http://www.tu-ilmenau.de,50.680151949999996,10.929790903090652
Ingolstadt TH,Technische Hochschule Ingolstadt,Fachhochschulen / HAW,öffentlich-rechtlich,Bayern,7537,1994,True,False,Esplanade 10,85049,Ingolstadt,https://www.thi.de,48.763799750000004,11.353434687477474
Ismaning HAM,Hochschule für angewandtes Management,Fachhochschulen / HAW,"privat, staatlich anerkannt",Bayern,3646,2004,False,False,Steinheilstraße 4,85737,Ismaning,http://www.fham.de,48.23978095,11.710495313326774
Jena H,Ernst-Abbe-Hochschule Jena - University of Applied Sciences,Fachhochschulen / HAW,öffentlich-rechtlich,Thüringen,4330,1991,False,False,Carl-Zeiss-Promenade 2,07745,Jena,https://www.eah-jena.de/,50.902749799999995,11.561141181042878
Jena U,Friedrich-Schiller-Universität Jena,Universitäten,öffentlich-rechtlich,Thüringen,16588,1558,True,True,Fürstengraben 1,07743,Jena,http://www.uni-jena.de,50.94818695,11.594633463002086
Kaiserslautern H,Hochschule Kaiserslautern (University of Applied Sciences),Fachhochschulen / HAW,öffentlich-rechtlich,Rheinland-Pfalz,5846,1996,False,False,Schoenstr. 11,67659,Kaiserslautern,www.hs-kl.de,49.46742105,7.749661524015271
Kaiserslautern-Landau RPTU,Rheinland-Pfälzische Technische Universität Kaiserslautern-Landau,Universitäten,öffentlich-rechtlich,Rheinland-Pfalz,18520,1970,True,True,Gottlieb-Daimler-Straße 47,67663,Kaiserslautern,https://www.rptu.de/,49.4226316,7.798379611487587
Karlsruhe AkdBK,Staatliche Akademie der Bildenden Künste Karlsruhe,Künstlerische Hochschulen,öffentlich-rechtlich,Baden-Württemberg,362,1854,True,False,Reinhold-Frank-Straße 67,76133,Karlsruhe,http://www.kunstakademie-karlsruhe.de,49.014552949999995,8.386901239704088
Karlsruhe H,Hochschule Karlsruhe - Technik und Wirtschaft,Fachhochschulen / HAW,öffentlich-rechtlich,Baden-Württemberg,6814,1878,False,False,Moltkestraße 30,76133,Karlsruhe,http://www.h-ka.de,49.014552949999995,8.386901239704088
Karlsruhe HfGest,Staatliche Hochschule für Gestaltung Karlsruhe,Künstlerische Hochschulen,öffentlich-rechtlich,Baden-Württemberg,376,1992,True,False,Lorenzstr. 15,76135,Karlsruhe,http://www.hfg-karlsruhe.de,48.9909722,8.382351310941846
Karlsruhe HfM,Hochschule für Musik Karlsruhe,Künstlerische Hochschulen,öffentlich-rechtlich,Baden-Württemberg,577,1812,True,False,Am Schloss Gottesaue 7,76131,Karlsruhe,http://www.hfm-karlsruhe.de,49.0463015,8.423714805785195
Karlsruhe KIU,Karlshochschule International University - staatlich anerkannte Hochschule der Karlshochschule gemeinnützige GmbH Karlsruhe,Fachhochschulen / HAW,"privat, staatlich anerkannt",Baden-Württemberg,361,2005,False,False,Karlstraße 36 - 38,76133,Karlsruhe,http://www.karlshochschule.de,49.014552949999995,8.386901239704088
Karlsruhe PH,Pädagogische Hochschule Karlsruhe,Universitäten,öffentlich-rechtlich,Baden-Württemberg,3552,1962,True,True,Bismarckstraße 10,76133,Karlsruhe,http://www.ph-karlsruhe.de,49.014552949999995,8.386901239704088
Karlsruhe U KIT,Karlsruher Institut für Technologie,Universitäten,öffentlich-rechtlich,Baden-Württemberg,22201,2009,True,True,Kaiserstraße 12,76131,Karlsruhe,http://www.kit.edu,49.0463015,8.423714805785195
Kassel CVJM,CVJM-Hochschule,Fachhochschulen / HAW,"privat, staatlich anerkannt",Hessen,458,2009,False,False,Hugo-Preuß-Straße 40,34131,Kassel,http://www.cvjm-hochschule.de/,51.31522845,9.403824922756677
Kassel U,Universität Kassel,Universitäten,öffentlich-rechtlich,Hessen,21791,1971,True,True,Mönchebergstraße 19,34125,Kassel,http://www.uni-kassel.de,51.338455100000004,9.554123653793493
Kempten H,Hochschule für angewandte Wissenschaften Kempten,Fachhochschulen / HAW,öffentlich-rechtlich,Bayern,4777,1977,False,False,Bahnhofstraße 61,87435,Kempten,http://www.hs-kempten.de,47.7118355,10.302584956466255
Kiel FH,Fachhochschule Kiel,Fachhochschulen / HAW,öffentlich-rechtlich,Schleswig-Holstein,7670,1969,False,False,Sokratesplatz 1,24149,Kiel,http://www.fh-kiel.de,54.33215865,10.188373793563404
Kiel KuH,Muthesius Kunsthochschule,Künstlerische Hochschulen,öffentlich-rechtlich,Schleswig-Holstein,541,1994,True,False,Legienstraße 35,24103,Kiel,http://www.muthesius-kunsthochschule.de/de/,54.32276615,10.13605310838472
Kiel U,Christian-Albrechts-Universität zu Kiel,Universitäten,öffentlich-rechtlich,Schleswig-Holstein,25940,1665,True,True,Christian-Albrechts-Platz 4,24118,Kiel,http://www.uni-kiel.de,54.3412831,10.118482223932585
Koblenz H,Hochschule Koblenz,Fachhochschulen / HAW,öffentlich-rechtlich,Rheinland-Pfalz,8992,1996,False,False,Konrad-Zuse-Straße 1,56075,Koblenz,http://www.hs-koblenz.de,50.31858665,7.567119704393189
Koblenz HfG,Hochschule für Gesellschaftsgestaltung,Hochschulen eigenen Typs,"privat, staatlich anerkannt",Rheinland-Pfalz,126,2015,False,False,Kornpfortstraße 15,56068,Koblenz,https://www.hfgg.de,50.3494613,7.594763211316648
Koblenz U,Universität Koblenz,Universitäten,öffentlich-rechtlich,Rheinland-Pfalz,9485,1990,True,True,Universitätsstraße 1,56070,Koblenz,https://www.uni-koblenz.de/de,50.38632175,7.574273552904765
Köln CBS,CBS International Business School - University of Applied Sciences,Fachhochschulen / HAW,"privat, staatlich anerkannt",Nordrhein-Westfalen,2475,1993,False,False,Bahnstraße 6 - 8,50996,Köln,https://www.cbs.de/,50.88153695,6.98367877746361
Köln DSHS,Deutsche Sporthochschule Köln,Universitäten,öffentlich-rechtlich,Nordrhein-Westfalen,6098,1947,True,True,Am Sportpark Müngersdorf 6,50933,Köln,http://www.dshs-koeln.de,50.942780850000005,6.875105355772343
Köln HfMT,Hochschule für Musik und Tanz Köln,Künstlerische Hochschulen,öffentlich-rechtlich,Nordrhein-Westfalen,1398,1845,True,False,Unter Krahnenbäumen 87,50668,Köln,http://www.hfmt-koeln.de,50.950473099999996,6.962944576674442
Köln KolpingH,Kolping Hochschule,Fachhochschulen / HAW,"privat, staatlich anerkannt",Nordrhein-Westfalen,19,2019,False,False,Mevissenstr.3,50668,Köln,https://www.kolping-hochschule.de/,50.950473099999996,6.962944576674442
Köln KuHMedien,Kunsthochschule für Medien Köln,Künstlerische Hochschulen,öffentlich-rechtlich,Nordrhein-Westfalen,413,1990,True,False,Peter-Welter-Platz 2,50676,Köln,http://www.khm.de,50.930204849999996,6.953021444701506
Köln RheinH,Rheinische Hochschule Köln,Fachhochschulen / HAW,"privat, staatlich anerkannt",Nordrhein-Westfalen,5817,1958,False,False,Schaevenstraße 1a-b,50676,Köln,https://www.rh-koeln.de,50.930204849999996,6.953021444701506
Köln TH,Technische Hochschule Köln,Fachhochschulen / HAW,öffentlich-rechtlich,Nordrhein-Westfalen,24294,1971,False,False,Claudiusstraße 1,50678,Köln,http://www.th-koeln.de,50.9242002,6.961637841547946
Köln U,Universität zu Köln,Universitäten,öffentlich-rechtlich,Nordrhein-Westfalen,48063,1388,True,True,Albertus-Magnus-Platz,50931,Köln,https://uni-koeln.de,50.93346305,6.916362941138541
Konstanz AllensbachH,"Allensbach Hochschule Konstanz,  staatlich anerkannte Hochschule der European Education Group GmbH",Fachhochschulen / HAW,"privat, staatlich anerkannt",Baden-Württemberg,640,1996,False,False,Lohnerhofstraße 2,78467,Konstanz,https://www.allensbach-hochschule.de/,47.69091925,9.150883032465213
Konstanz H,"Hochschule Konstanz Technik, Wirtschaft und Gestaltung",Fachhochschulen / HAW,öffentlich-rechtlich,Baden-Württemberg,4360,1906,False,False,Alfred-Wachtel-Straße 8,78462,Konstanz,http://www.htwg-konstanz.de,47.661950149999996,9.170679077228662
Konstanz U,Universität Konstanz,Universitäten,öffentlich-rechtlich,Baden-Württemberg,10472,1966,True,True,Universitätsstraße 10,78464,Konstanz,https://www.uni-konstanz.de/,47.680462000000006,9.195440666343309
Landshut H,Hochschule Landshut - Hochschule für angewandte Wissenschaften,Fachhochschulen / HAW,öffentlich-rechtlich,Bayern,4674,1978,False,False,Am Lurzenhof 1,84036,Landshut,http://www.haw-landshut.de,48.528478,12.180719650770794
Leipzig HfGuB,Hochschule für Grafik und Buchkunst Leipzig,Künstlerische Hochschulen,öffentlich-rechtlich,Sachsen,589,1764,True,False,Wächterstraße 11,04107,Leipzig,http://www.hgb-leipzig.de,51.33006975,12.36697578849279
Leipzig HHL,HHL Leipzig Graduate School of Management,Universitäten,"privat, staatlich anerkannt",Sachsen,739,1898,True,True,Jahnallee 59,04109,Leipzig,http://www.hhl.de,51.338546199999996,12.364280271419045
Leipzig HMT,Hochschule für Musik und Theater Felix Mendelssohn Bartholdy Leipzig,Künstlerische Hochschulen,öffentlich-rechtlich,Sachsen,1129,1843,True,False,Grassistraße 8,04107,Leipzig,http://www.hmt-leipzig.de,51.33006975,12.36697578849279
Leipzig HTWK,"Hochschule für Technik, Wirtschaft und Kultur Leipzig",Fachhochschulen / HAW,öffentlich-rechtlich,Sachsen,6843,1992,False,False,Karl-Liebknecht-Straße 132,04277,Leipzig,http://www.htwk-leipzig.de,51.3018488,12.36467670366595
Leipzig U,Universität Leipzig,Universitäten,öffentlich-rechtlich,Sachsen,29582,1409,True,True,Ritterstraße 26,04109,Leipzig,http://www.uni-leipzig.de,51.338546199999996,12.364280271419045
Lübeck HfM,Musikhochschule Lübeck,Künstlerische Hochschulen,öffentlich-rechtlich,Schleswig-Holstein,416,1973,True,False,Große Petersgrube 21,23552,Lübeck,http://www.mh-luebeck.de,53.86720615,10.687933723937665
Lübeck TH,Technische Hochschule Lübeck,Fachhochschulen / HAW,öffentlich-rechtlich,Schleswig-Holstein,5138,1808,False,False,Mönkhofer Weg 239,23562,Lübeck,https://www.th-luebeck.de/,53.8279733,10.72377788308227
Lübeck U,Universität zu Lübeck,Universitäten,öffentlich-rechtlich,Schleswig-Holstein,5958,1964,True,True,Ratzeburger Allee 160,23562,Lübeck,http://www.uni-luebeck.de,53.8279733,10.72377788308227
Ludwigsburg PH,Pädagogische Hochschule Ludwigsburg,Universitäten,öffentlich-rechtlich,Baden-Württemberg,5988,1962,True,True,Reuteallee 46,71634,Ludwigsburg,http://www.ph-ludwigsburg.de,48.91024415,9.174084125820093
Ludwigshafen HWG,Hochschule für Wirtschaft und Gesellschaft Ludwigshafen ,Fachhochschulen / HAW,öffentlich-rechtlich,Rheinland-Pfalz,4400,1965,False,False,Ernst-Boehe-Str. 4,67059,Ludwigshafen,http://www.hwg-lu.de,49.47577565,8.422626499929684
Lüneburg U,Leuphana Universität Lüneburg,Universitäten,öffentlich-rechtlich,Niedersachsen,9268,1946,True,True,Universitätsallee 1,21335,Lüneburg,https://www.leuphana.de/services/studierendenservice/infoportal-erstauskunft-zum-studium.html,53.2230452,10.384524864528949
Magdeburg SH,Steinbeis Hochschule,Fachhochschulen / HAW,"privat, staatlich anerkannt",Sachsen-Anhalt,4626,1998,False,False,Hegelstraße 39,39104,Magdeburg,https://www.steinbeis-hochschule.de/,52.115188200000006,11.630882029293115
Magdeburg-Stendal H,Hochschule Magdeburg-Stendal,Fachhochschulen / HAW,öffentlich-rechtlich,Sachsen-Anhalt,5258,1991,True,False,Breitscheidstraße 2,39114,Magdeburg,http://www.h2.de,52.1130345,11.678084253335411
Magdeburg U,Otto-von-Guericke-Universität Magdeburg,Universitäten,öffentlich-rechtlich,Sachsen-Anhalt,12490,1993,True,True,Universitätsplatz 2,39106,Magdeburg,http://www.ovgu.de,52.1454207,11.649465461859863
Mainz H,Hochschule Mainz,Fachhochschulen / HAW,öffentlich-rechtlich,Rheinland-Pfalz,5621,1996,False,False,Lucy-Hillebrand-Straße 2,55128,Mainz,https://www.hs-mainz.de/,49.9803406,8.235944886723537
Mainz KathH,Katholische Hochschule Mainz Catholic University of Applied Sciences,Fachhochschulen / HAW,"kirchlich, staatlich anerkannt",Rheinland-Pfalz,1543,1972,False,False,Saarstraße 3,55122,Mainz,https://www.kh-mz.de/katholische-hochschule/,50.0053273,8.233723668308905
Mainz U,Johannes Gutenberg-Universität Mainz,Universitäten,öffentlich-rechtlich,Rheinland-Pfalz,29617,1477,True,True,Saarstraße 21,55122,Mainz,http://www.uni-mainz.de,50.0053273,8.233723668308905
Mannheim H,Hochschule Mannheim,Fachhochschulen / HAW,öffentlich-rechtlich,Baden-Württemberg,5034,1898,False,False,Paul-Wittsack-Straße 10,68163,Mannheim,http://www.hs-mannheim.de,49.4685394,8.512367152516184
Mannheim HdBA (Verw),Hochschule der Bundesagentur für Arbeit - Staatlich anerkannte Hochschule für angewandte Wissenschaft in Mannheim und Schwerin (University of Applied Labour Studies of the Federal Employment Agency),Verwaltungshochschule,öffentlich-rechtlich,Baden-Württemberg,1514,2006,False,False,Seckenheimer Landstraße 16,68163,Mannheim,http://www.hdba.de/,49.4685394,8.512367152516184
Mannheim HdWM,Hochschule der Wirtschaft für Management,Fachhochschulen / HAW,"privat, staatlich anerkannt",Baden-Württemberg,290,2011,False,False,Oskar-Meixner-Straße 4-6,68163,Mannheim,http://www.hdwm.de,49.4685394,8.512367152516184
Mannheim HfM,Staatliche Hochschule für Musik und Darstellende Kunst Mannheim,Künstlerische Hochschulen,öffentlich-rechtlich,Baden-Württemberg,575,1971,True,False,"N 7, 18",68161,Mannheim,http://www.muho-mannheim.de,49.48512255,8.469606949700758
Mannheim U,Universität Mannheim,Universitäten,öffentlich-rechtlich,Baden-Württemberg,11397,1907,True,True,Schloss,68161,Mannheim,http://www.uni-mannheim.de,49.48512255,8.469606949700758
Marburg EHTabor,Evangelische Hochschule Tabor,Fachhochschulen / HAW,"privat, staatlich anerkannt",Hessen,165,1909,False,False,Dürerstraße 43,35039,Marburg,www.eh-tabor.de,50.812504950000005,8.785766766461869
Marburg U,Philipps-Universität Marburg,Universitäten,öffentlich-rechtlich,Hessen,21237,1527,True,True,Biegenstraße 10,35037,Marburg,http://www.uni-marburg.de,50.80198025,8.75343732487691
Merseburg H,Hochschule Merseburg,Fachhochschulen / HAW,öffentlich-rechtlich,Sachsen-Anhalt,2953,1992,True,False,Eberhard-Leibnitz-Straße 2,06217,Merseburg,http://www.hs-merseburg.de,51.3406523,11.966549449897272
Mittelhessen THM,Technische Hochschule Mittelhessen - THM,Fachhochschulen / HAW,öffentlich-rechtlich,Hessen,16795,1971,False,False,Wiesenstraße 14,35390,Gießen,http://www.thm.de,50.5879221,8.67665858322707
Mittweida H,"Hochschule Mittweida, University of Applied Sciences",Fachhochschulen / HAW,öffentlich-rechtlich,Sachsen,6079,1867,False,False,Technikumplatz 17,09648,Mittweida,www.hs-mittweida.de,51.001553099999995,12.981743670619846
München AkdBK,Akademie der Bildenden Künste München,Künstlerische Hochschulen,öffentlich-rechtlich,Bayern,754,1808,True,False,Akademiestraße 2-4,80799,München,http://www.adbk.de/,48.152073349999995,11.574806064751712
München HAW,Hochschule für angewandte Wissenschaften München,Fachhochschulen / HAW,öffentlich-rechtlich,Bayern,18062,1971,False,False,Lothstr. 34,80335,München,http://www.hm.edu,48.146568599999995,11.551117658668703
München HDBW,Hochschule der Bayerischen Wirtschaft für angewandte Wissenschaften - HDBW,Fachhochschulen / HAW,"privat, staatlich anerkannt",Bayern,469,2012,False,False,Konrad-Zuse-Platz 8,81829,München,www.hdbw-hochschule.de,48.1337855,11.683079620936187
München HFF,Hochschule für Fernsehen und Film München,Künstlerische Hochschulen,öffentlich-rechtlich,Bayern,398,1966,True,False,Bernd-Eichinger-Platz 1,80333,München,http://www.hff-muc.de,48.144949249999996,11.568237712770191
München HMT,Hochschule für Musik und Theater München,Künstlerische Hochschulen,öffentlich-rechtlich,Bayern,1182,1830,True,False,Arcisstraße 12,80333,München,http://www.hmtm.de,48.144949249999996,11.568237712770191
München HPhil,Hochschule für Philosophie,Universitäten,"kirchlich, staatlich anerkannt",Bayern,419,1925,True,True,Kaulbachstraße 31,80539,München,http://www.hfph.de,48.14436135,11.58106988515561
München IH,Internationale Hochschule SDI München - Hochschule für angewandte Wissenschaften,Fachhochschulen / HAW,"privat, staatlich anerkannt",Bayern,286,2007,False,False,Baierbrunner Straße 28,81379,München,https://www.sdi-muenchen.de/hochschule/,48.1025145,11.519520027304612
München KathH,Katholische    Stiftungshochschule für   angewandte Wissenschaften München - Hochschule der Kirchlichen Stiftung des öffentlichen Rechts Katholische Bildungsstätten für Sozialberufe in Bayern,Fachhochschulen / HAW,"kirchlich, staatlich anerkannt",Bayern,2401,1971,False,False,Preysingstraße 95,81667,München,http://www.ksh-muenchen.de,48.1304143,11.601016273898741
München MBS,Munich Business School - Staatlich anerkannte private Fachhochschule,Fachhochschulen / HAW,"privat, staatlich anerkannt",Bayern,613,1991,False,False,Elsenheimerstraße 61,80687,München,http://www.munich-business-school.de,48.1405161,11.50825458307936
München TUM,Technische Universität München,Universitäten,öffentlich-rechtlich,Bayern,54575,1868,True,True,Arcisstraße 21,80333,München,http://www.tum.de,48.144949249999996,11.568237712770191
München U,Ludwig-Maximilians-Universität München,Universitäten,öffentlich-rechtlich,Bayern,52086,1472,True,True,Geschwister-Scholl-Platz 1,80539,München,http://www.lmu.de,48.14436135,11.58106988515561
München UBw,Universität der Bundeswehr München,Universitäten,öffentlich-rechtlich,Bayern,3456,1973,True,True,Werner-Heisenberg-Weg 39,85577,Neubiberg,http://www.unibw.de,48.0743,11.6586
Münster FH,FH Münster University of Applied Sciences,Fachhochschulen / HAW,öffentlich-rechtlich,Nordrhein-Westfalen,15184,1971,False,False,Hüfferstr. 27,48149,Münster,https://www.fh-muenster.de/index.php,51.96387185,7.602694380666238
Münster KuAk,"Kunstakademie Münster, Hochschule für Bildende Künste",Künstlerische Hochschulen,öffentlich-rechtlich,Nordrhein-Westfalen,375,1971,True,True,Leonardo-Campus 2,48149,Münster,https://www.kunstakademie-muenster.de/hochschule/organisation-und-verwaltung,51.96387185,7.602694380666238
Münster PhThH,Philosophisch-Theologische Hochschule Münster - Kirchlich und staatlich anerkannte Hochschule in Trägerschaft der PTH Philosophisch-Theologische Hochschule Münster gemeinnützige GmbH,Universitäten,"kirchlich, staatlich anerkannt",Nordrhein-Westfalen,7,1971,False,False,Kapuzinerstr. 27,48149,Münster,http://www.pth-muenster.de,51.96387185,7.602694380666238
Münster U,Universität Münster,Universitäten,öffentlich-rechtlich,Nordrhein-Westfalen,42458,1780,True,True,Schlossplatz 2,48149,Münster,https://www.uni-muenster.de,51.96387185,7.602694380666238
Neubrandenburg H,Hochschule Neubrandenburg - University of Applied Sciences,Fachhochschulen / HAW,öffentlich-rechtlich,Mecklenburg-Vorpommern,2082,1991,False,False,Brodaer Straße 2,17033,Neubrandenburg,http://www.hs-nb.de,53.531625500000004,13.259116046417208
Neuendettelsau KiH,Augustana-Hochschule Neuendettelsau,Universitäten,"kirchlich, staatlich anerkannt",Bayern,97,1947,True,True,Waldstraße 11,91564,Neuendettelsau,http://www.augustana.de,49.2861165,10.803698974086819
Neuruppin MHB,Medizinische Hochschule Brandenburg Theodor Fontane,Universitäten,"privat, staatlich anerkannt",Brandenburg,819,2014,False,False,Fehrbelliner Str. 38,16816,Neuruppin,http://www.mhb-fontane.de,52.917682150000005,12.776455279758906
Neu-Ulm H,Hochschule für angewandte Wissenschaften Neu-Ulm,Fachhochschulen / HAW,öffentlich-rechtlich,Bayern,4077,1994,False,False,Wileystraße 1,89231,Neu-Ulm,https://www.hnu.de,48.3778145,10.000127036948559
Niederrhein H,Hochschule Niederrhein,Fachhochschulen / HAW,öffentlich-rechtlich,Nordrhein-Westfalen,13179,1971,False,False,Reinarzstraße 49,47805,Krefeld,http://www.hs-niederrhein.de,51.317658800000004,6.563564602912973
Niedersachsen HVerw (Verw),Kommunale Hochschule für Verwaltung in Niedersachsen,Verwaltungshochschule,öffentlich-rechtlich,Niedersachsen,1561,2007,False,False,Wielandstraße 8,30169,Hannover,http://www.nsi-hsvn.de/,52.36500325,9.734566995761206
Nordhausen H,Hochschule Nordhausen,Fachhochschulen / HAW,öffentlich-rechtlich,Thüringen,2035,1997,False,False,Weinberghof 4,99734,Nordhausen,http://www.hs-nordhausen.de,51.497986749999995,10.803268318899804
Nordhessen FH,DIPLOMA Hochschule - Private Fachhochschule Nordhessen,Fachhochschulen / HAW,"privat, staatlich anerkannt",Hessen,7775,1997,False,False,Am Hegeberg 2,37242,Bad Sooden-Allendorf,http://www.diploma.de,51.275247449999995,9.966432752208682
Nordrhein-Westfalen DHPol (Verw),Deutsche Hochschule der Polizei,Verwaltungshochschule,öffentlich-rechtlich,Nordrhein-Westfalen,434,2008,True,False,Zum Roten Berge 18,48165,Münster,https://www.dhpol.de,51.8982648,7.65038201339706
Nordrhein-Westfalen FHRecht (Verw),Fachhochschule für Rechtspflege Nordrhein-Westfalen,Verwaltungshochschule,öffentlich-rechtlich,Nordrhein-Westfalen,887,1976,False,False,Schleidtalstraße 3,53902,Bad Münstereifel,https://www.fhr.nrw.de/,50.53145875,6.814256710554267
Nordrhein-Westfalen HFinanz (Verw),Hochschule für Finanzen NRW,Verwaltungshochschule,öffentlich-rechtlich,Nordrhein-Westfalen,2795,1976,False,False,Schloßstraße,59394,Nordkirchen,https://www.finanzverwaltung.nrw.de/de/duales-studium-der-hsf-nrw,51.7300377,7.553991610201027
Nordrhein-Westfalen HSPV (Verw),Hochschule für Polizei und öffentliche Verwaltung Nordrhein-Westfalen,Verwaltungshochschule,öffentlich-rechtlich,Nordrhein-Westfalen,13078,1976,False,False,Haidekamp 73,45886,Gelsenkirchen,https://www.hspv.nrw.de/,51.4980385,7.119724878010753
Nordrhein-Westfalen KathH,Katholische Hochschule Nordrhein-Westfalen - Catholic University of Applied Sciences,Fachhochschulen / HAW,"kirchlich, staatlich anerkannt",Nordrhein-Westfalen,5440,1971,False,False,Wörthstraße 10,50668,Köln,http://www.katho-nrw.de,50.950473099999996,6.962944576674442
Nordrhein-Westfalen SRH,SRH Hochschule in Nordrhein-Westfalen,Fachhochschulen / HAW,"privat, staatlich anerkannt",Nordrhein-Westfalen,740,2005,False,False,Platz der Deutschen Einheit 1,59065,Hamm,https://www.srh-hochschule-nrw.de/?utm_source=wkz-HA91531IM,51.6884286,7.809116231076063
Nürnberg AkdBK,Akademie der Bildenden Künste Nürnberg,Künstlerische Hochschulen,öffentlich-rechtlich,Bayern,310,1662,False,False,Bingstraße 60,90480,Nürnberg,http://www.adbk-nuernberg.de,49.4428707,11.123207082971799
Nürnberg EvH,Evangelische Hochschule für angewandte Wissenschaften - Evangelische Fachhochschule Nürnberg,Fachhochschulen / HAW,"kirchlich, staatlich anerkannt",Bayern,1211,1927,False,False,Bärenschanzstraße 4,90429,Nürnberg,http://www.evhn.de/,49.4570659,11.042453979908913
Nürnberg HfM,Hochschule für Musik Nürnberg,Künstlerische Hochschulen,öffentlich-rechtlich,Bayern,333,2008,True,False,Veilhofstraße 34,90489,Nürnberg,http://www.hfm-nuernberg.de,49.4591347,11.09870538750349
Nürnberg TH,Technische Hochschule Nürnberg Georg Simon Ohm,Fachhochschulen / HAW,öffentlich-rechtlich,Bayern,12355,1823,False,False,Keßlerplatz 12,90489,Nürnberg,https://www.th-nuernberg.de/,49.4591347,11.09870538750349
Nürnberg TU,Technische Universität Nürnberg,Universitäten,öffentlich-rechtlich,Bayern,18,2021,True,False,Ulmenstraße 52i,90443,Nürnberg,https://www.utn.de/,49.4380654,11.068411970594418
Nürtingen-Geislingen H,Hochschule für Wirtschaft und Umwelt Nürtingen-Geislingen,Fachhochschulen / HAW,öffentlich-rechtlich,Baden-Württemberg,5066,1949,False,False,Neckarsteige 6-10,72622,Nürtingen,http://www.hfwu.de,48.61646925,9.352172477509349
Oberursel LuthThH,Lutherische Theologische Hochschule Oberursel,Universitäten,"kirchlich, staatlich anerkannt",Hessen,17,1947,False,False,Altkönigstraße 150,61440,Oberursel,http://www.lthh-oberursel.de,50.2062659,8.57015217875598
Offenbach HfGest,Hochschule für Gestaltung Offenbach,Künstlerische Hochschulen,öffentlich-rechtlich,Hessen,795,1970,True,False,Schloßstraße 31,63065,Offenbach,http://www.hfg-offenbach.de,50.1057262,8.767810376578506
Offenburg H,"Hochschule für Technik, Wirtschaft und Medien Offenburg",Fachhochschulen / HAW,öffentlich-rechtlich,Baden-Württemberg,3761,1964,False,False,Badstraße 24,77652,Offenburg,http://www.hs-offenburg.de,48.500275099999996,7.942647433832192
Oldenburg U,Carl von Ossietzky Universität Oldenburg,Universitäten,öffentlich-rechtlich,Niedersachsen,15335,1973,True,True,Ammerländer Heerstraße 114-118,26129,Oldenburg,http://www.uol.de,53.15301635,8.173535630553658
Osnabrück H,Hochschule Osnabrück,Fachhochschulen / HAW,öffentlich-rechtlich,Niedersachsen,13317,1971,False,False,Albrechtstraße 30,49076,Osnabrück,http://www.hs-osnabrueck.de,52.28930855,7.969926121292211
Osnabrück U,Universität Osnabrück,Universitäten,öffentlich-rechtlich,Niedersachsen,13487,1973,True,True,Neuer Graben/Schloss,49074,Osnabrück,http://www.uni-osnabrueck.de,52.2760322,8.05208487298606
Ostfalia H,"Hochschule Braunschweig/Wolfenbüttel, Ostfalia Hochschule für angewandte Wissenschaften",Fachhochschulen / HAW,öffentlich-rechtlich,Niedersachsen,10775,1971,False,False,Salzdahlumer Straße 46/48,38302,Wolfenbüttel,http://www.ostfalia.de,52.191531749999996,10.569176510909724
Ostwestfalen-Lippe TH,Technische Hochschule Ostwestfalen-Lippe,Fachhochschulen / HAW,öffentlich-rechtlich,Nordrhein-Westfalen,5960,1971,False,False,Campusallee 12,32657,Lemgo,http://www.th-owl.de,52.040161499999996,8.892708595970877
Ottersberg H,"Hochschule für Künste im Sozialen, Ottersberg",Fachhochschulen / HAW,"privat, staatlich anerkannt",Niedersachsen,325,1967,False,False,Große Straße 107,28870,Ottersberg,https://www.hks-ottersberg.de,53.100179,9.014025929988986
Paderborn FHDW,Fachhochschule der Wirtschaft,Fachhochschulen / HAW,"privat, staatlich anerkannt",Nordrhein-Westfalen,2021,1993,False,False,Fürstenallee 5,33102,Paderborn,https://www.fhdw.de,51.7348667,8.743534708720818
Paderborn ThFak,Theologische Fakultät Paderborn,Universitäten,"kirchlich, staatlich anerkannt",Nordrhein-Westfalen,60,1614,True,True,Kamp 6,33098,Paderborn,http://www.thf-paderborn.de/,51.70954235,8.74999759222395
Paderborn U,Universität Paderborn,Universitäten,öffentlich-rechtlich,Nordrhein-Westfalen,17228,1972,True,True,Warburger Straße 100,33098,Paderborn,http://www.uni-paderborn.de,51.70954235,8.74999759222395
Passau U,Universität Passau,Universitäten,öffentlich-rechtlich,Bayern,10881,1973,True,True,Innstraße 41,94032,Passau,http://www.uni-passau.de,48.5673568,13.46219558408719
Pforzheim H,"Hochschule Pforzheim - Gestaltung, Technik, Wirtschaft und Recht",Fachhochschulen / HAW,öffentlich-rechtlich,Baden-Württemberg,5659,1877,False,False,Tiefenbronner Straße 65,75175,Pforzheim,http://www.hs-pforzheim.de/,48.8852041,8.712344325030168
Potsdam-Babelsberg FilmU,Filmuniversität Babelsberg Konrad Wolf,Künstlerische Hochschulen,öffentlich-rechtlich,Brandenburg,947,1954,True,False,Marlene-Dietrich-Allee 11,14482,Potsdam,https://www.filmuniversitaet.de/,52.3922047,13.108012731196634
Potsdam CHP,Hochschule Clara Hoffbauer (HCHP) - University of Applied Sciences,Fachhochschulen / HAW,"privat, staatlich anerkannt",Brandenburg,119,2016,False,False,Hermannswerder 7,14473,Potsdam,https://hchp.de/,52.3707598,13.05225365455202
Potsdam FH,Fachhochschule Potsdam,Fachhochschulen / HAW,öffentlich-rechtlich,Brandenburg,3730,1991,False,False,Kiepenheuerallee 5,14469,Potsdam,https://www.fh-potsdam.de,52.423077899999996,13.037531156029615
Potsdam FHSport,Fachhochschule für Sport und Management Potsdam,Fachhochschulen / HAW,"privat, staatlich anerkannt",Brandenburg,553,2009,False,False,Olympischer Weg 7,14471,Potsdam,www.fhsmp.de,52.3785892,13.001260142355731
Potsdam GISMA,Gisma University of Applied Sciences,Fachhochschulen / HAW,"privat, staatlich anerkannt",Brandenburg,834,2020,False,False,Konrad-Zuse-Ring 11,14469,Potsdam,https://www.gisma.com,52.423077899999996,13.037531156029615
Potsdam GU,GU Deutsche Hochschule für Angewandte Wissenschaften - German University of Applied Sciences,Fachhochschulen / HAW,"privat, staatlich anerkannt",Brandenburg,50,2022,False,False,Jägerallee 26,14469,Potsdam,https://gu-hochschule.de/,52.423077899999996,13.037531156029615
Potsdam HSD,HSD Hochschule Döpfer,Fachhochschulen / HAW,"privat, staatlich anerkannt",Brandenburg,1405,2013,False,False,Tuchmacherstraße 48b,14482,Potsdam,https://www.hs-doepfer.de/,52.3922047,13.108012731196634
Potsdam U,Universität Potsdam,Universitäten,öffentlich-rechtlich,Brandenburg,20401,1991,True,True,Am Neuen Palais 10,14469,Potsdam,http://www.uni-potsdam.de,52.423077899999996,13.037531156029615
Potsdam UE,University of Europe for Applied Sciences,Fachhochschulen / HAW,"privat, staatlich anerkannt",Brandenburg,4787,2000,False,False,Konrad-Zuse-Ring 11,14469,Potsdam,https://www.ue-germany.com/,52.423077899999996,13.037531156029615
Potsdam XU,XU Exponential University of Applied Sciences,Fachhochschulen / HAW,"privat, staatlich anerkannt",Brandenburg,176,2018,False,False,August-Bebel-Straße 26-53,14482,Potsdam,https://xu-university.com,52.3922047,13.108012731196634
Ravensburg-Weingarten H,Hochschule Ravensburg-Weingarten,Fachhochschulen / HAW,öffentlich-rechtlich,Baden-Württemberg,3448,1964,False,False,Doggenriedstraße 70,88250,Weingarten,http://www.rwu.de,47.80484995,9.640100368299736
Regensburg HfKiM,Hochschule für Katholische Kirchenmusik und Musikpädagogik,Künstlerische Hochschulen,"kirchlich, staatlich anerkannt",Bayern,121,2001,False,False,Andreasstraße 9,93059,Regensburg,http://www.hfkm-regensburg.de,49.03514815,12.098039502678724
Regensburg OTH,Ostbayerische Technische Hochschule Regensburg,Fachhochschulen / HAW,öffentlich-rechtlich,Bayern,10704,1971,False,False,Seybothstraße 2,93053,Regensburg,http://www.oth-regensburg.de,48.98942365,12.094578451704546
Regensburg U,Universität Regensburg,Universitäten,öffentlich-rechtlich,Bayern,20353,1962,True,True,Universitätsstraße 31,93053,Regensburg,https://www.uni-regensburg.de,48.98942365,12.094578451704546
Reutlingen HTWID,"Hochschule Reutlingen, Hochschule für Technik-  Wirtschaft-Informatik-Design",Fachhochschulen / HAW,öffentlich-rechtlich,Baden-Württemberg,4933,1855,False,False,Alteburgstraße 150,72762,Reutlingen,http://www.reutlingen-university.de/,48.4795328,9.19287955478297
Reutlingen ThH,Theologische Hochschule Reutlingen - staatlich anerkannte Fachhochschule der Evangelisch-methodistischen Kirche,Fachhochschulen / HAW,"kirchlich, staatlich anerkannt",Baden-Württemberg,105,1877,False,False,Friedrich-Ebert-Straße 31,72762,Reutlingen,http://www.th-reutlingen.de,48.4795328,9.19287955478297
Rheinland-Pfalz HVerw (Verw),Hochschule für öffentliche Verwaltung Rheinland-Pfalz,Verwaltungshochschule,öffentlich-rechtlich,Rheinland-Pfalz,912,1981,False,False,St.-Veit-Straße 26-28,56727,Mayen,https://hoev-rlp.de/de/ueber-die-hochschule/kontakt/,50.321954,7.202836119781388
RheinMain H,Hochschule RheinMain,Fachhochschulen / HAW,öffentlich-rechtlich,Hessen,12945,1971,True,False,Kurt-Schumacher-Ring 18,65197,Wiesbaden,https://www.hs-rm.de/de/,50.0803522,8.212063831157877
Rhein-Waal H,Hochschule Rhein-Waal - University of Applied Sciences,Fachhochschulen / HAW,öffentlich-rechtlich,Nordrhein-Westfalen,6465,2009,False,False,Marie-Curie-Str. 1,47533,Kleve,http://www.hochschule-rhein-waal.de/,51.79869275,6.1449935248722
Riedlingen SRH,SRH Fernhochschule - The Mobile University,Fachhochschulen / HAW,"privat, staatlich anerkannt",Baden-Württemberg,8746,1996,False,False,Kirchstraße 26,88499,Riedlingen,https://www.mobile-university.de,48.1721204,9.441522456790569
Rosenheim TH,Technische Hochschule Rosenheim,Fachhochschulen / HAW,öffentlich-rechtlich,Bayern,6648,1971,False,False,Hochschulstraße 1,83024,Rosenheim,http://www.th-rosenheim.de/,47.8692191,12.11228097391248
Rostock HMT,Hochschule für Musik und Theater Rostock,Künstlerische Hochschulen,öffentlich-rechtlich,Mecklenburg-Vorpommern,567,1994,True,True,Beim St.-Katharinenstift 8,18055,Rostock,http://www.hmt-rostock.de,54.08597785,12.16226994386194
Rostock U,Universität Rostock,Universitäten,öffentlich-rechtlich,Mecklenburg-Vorpommern,12678,1419,True,True,Universitätsplatz 1,18055,Rostock,http://www.uni-rostock.de,54.08597785,12.16226994386194
Rottenburg H,Hochschule für Forstwirtschaft Rottenburg,Fachhochschulen / HAW,öffentlich-rechtlich,Baden-Württemberg,941,1954,False,False,Schadenweilerhof,72108,Rottenburg,http://www.hs-rottenburg.net,48.46967965,8.934589874858336
Rottenburg HfKiM,Hochschule für Kirchenmusik der Diözese Rottenburg-Stuttgart,Künstlerische Hochschulen,"kirchlich, staatlich anerkannt",Baden-Württemberg,19,1949,False,False,St.-Meinrad-Weg 6,72108,Rottenburg,www.kirchenmusik-hochschule.org,48.46967965,8.934589874858336
Ruhr West H,Hochschule Ruhr West- University of Applied Sciences,Fachhochschulen / HAW,öffentlich-rechtlich,Nordrhein-Westfalen,5999,2009,False,False,Duisburger Straße 100,45479,Mülheim,http://www.hochschule-ruhr-west.de,51.40880395,6.834513263004888
Saarbrücken DHfPG,Deutsche Hochschule für Prävention und Gesundheitsmanagement GmbH,Fachhochschulen / HAW,"privat, staatlich anerkannt",Saarland,7133,2001,False,False,Hermann-Neuberger-Straße 3,66123,Saarbrücken,http://www.dhfpg.de,49.247765400000006,7.023153706790728
Saarbrücken HfM,Hochschule für Musik Saar,Künstlerische Hochschulen,öffentlich-rechtlich,Saarland,501,1947,True,False,Bismarckstraße 1,66111,Saarbrücken,www.hfmsaar.de,49.23601225,6.999016026616037
Saarbrücken HTW,Hochschule für Technik und Wirtschaft des Saarlandes,Fachhochschulen / HAW,öffentlich-rechtlich,Saarland,5942,1971,False,False,Goebenstraße 40,66117,Saarbrücken,http://www.htwsaar.de,49.22000465,6.96041256043042
Saarbrücken U,Universität des Saarlandes,Universitäten,öffentlich-rechtlich,Saarland,15949,1948,True,True,Campus,66123,Saarbrücken,https://www.uni-saarland.de,49.247765400000006,7.023153706790728
Saar HBK,Hochschule der Bildenden Künste Saar,Künstlerische Hochschulen,öffentlich-rechtlich,Saarland,434,1989,True,False,Keplerstraße 3-5,66117,Saarbrücken,https://www.hbksaar.de,49.22000465,6.96041256043042
Saarland FHVerw (Verw),Fachhochschule der Verwaltung des Saarlandes,Verwaltungshochschule,öffentlich-rechtlich,Saarland,802,1980,False,False,Am Campus 7,66287,Quierschied,https://www.saarland.de/fhsv/DE/home/home_node.html,49.3179346,7.027610762410786
Sachsen-Anhalt FHPol (Verw),Fachhochschule Polizei Sachsen-Anhalt,Verwaltungshochschule,öffentlich-rechtlich,Sachsen-Anhalt,705,1997,False,False,Schmidtmannstraße 86,06449,Aschersleben,https://fh-polizei.sachsen-anhalt.de/fachhochschule,51.7810358,11.487492563053523
Sachsen HPol (Verw),Hochschule der Sächsischen Polizei (FH),Verwaltungshochschule,öffentlich-rechtlich,Sachsen,640,1994,False,False,Friedensstraße 120,02929,Rothenburg,https://www.polizei.sachsen.de/de/polfh.htm,51.355771399999995,14.940201595800776
Sachsen HVerw (VerwH),"Hochschule für öffentliche Verwaltung und Rechtspflege (FH), Fortbildungszentrum des Freistaates Sachsen (HSF)",Verwaltungshochschule,öffentlich-rechtlich,Sachsen,1035,1992,False,False,Herbert-Böhme-Straße 11,01662,Meißen,https://www.hsf.sachsen.de/,51.16154035,13.483859618085557
Schleswig-Holstein DHSH,Duale Hochschule Schleswig-Holstein - staatlich anerkannte Hochschule für angewandte Wissenschaften in Trägerschaft der Wirtschaftsakademie Schleswig-Holstein,Fachhochschulen / HAW,"privat, staatlich anerkannt",Schleswig-Holstein,512,2018,False,False,Hans-Detlev-Prien-Straße 10,24106,Kiel,https://www.dhsh.de,54.3602667,10.121942077093598
Schleswig-Holstein FHVD (Verw),Fachhochschule für Verwaltung und Dienstleistung in Schleswig-Holstein,Verwaltungshochschule,öffentlich-rechtlich,Schleswig-Holstein,1716,1975,False,False,Rehmkamp 10,24161,Altenholz,https://www.fhvd-sh.de/hochschule/fhvd/,54.3926115,10.108744608826033
Schmalkalden H,Hochschule Schmalkalden,Fachhochschulen / HAW,öffentlich-rechtlich,Thüringen,2564,1991,False,False,Blechhammer 9,98574,Schmalkalden,http://www.hs-schmalkalden.de,50.71707565,10.414783450771182
Schwäbisch Gmünd HGest,Hochschule für Gestaltung Schwäbisch Gmünd,Fachhochschulen / HAW,öffentlich-rechtlich,Baden-Württemberg,678,1909,False,False,Rektor-Klaus-Str. 100,73525,Schwäbisch Gmünd,http://www.hfg-gmuend.de,48.79457789999999,9.803104689063886
Schwäbisch Gmünd PH,Pädagogische Hochschule Schwäbisch Gmünd,Universitäten,öffentlich-rechtlich,Baden-Württemberg,2780,1962,True,True,Oberbettringer Str. 200,73525,Schwäbisch Gmünd,https://www.ph-gmuend.de,48.79457789999999,9.803104689063886
Siegen U,Universität Siegen,Universitäten,öffentlich-rechtlich,Nordrhein-Westfalen,15186,1972,True,True,Adolf-Reichwein-Straße 2,57076,Siegen,http://www.uni-siegen.de,50.90239725,8.032872315202471
Speyer DUV,Deutsche Universität für Verwaltungswissenschaften Speyer,Universitäten,öffentlich-rechtlich,Rheinland-Pfalz,278,1947,True,True,Freiherr-vom-Stein-Straße 2,67346,Speyer,http://www.uni-speyer.de,49.329539600000004,8.42923677890457
Stralsund H,Hochschule Stralsund,Fachhochschulen / HAW,öffentlich-rechtlich,Mecklenburg-Vorpommern,2268,1991,False,False,Zur Schwedenschanze 15,18435,Stralsund,www.hochschule-stralsund.de,54.32997,13.064996110965268
Stuttgart AKAD,AKAD Hochschule Stuttgart - staatlich anerkannt,Fachhochschulen / HAW,"privat, staatlich anerkannt",Baden-Württemberg,6370,1959,False,False,Heilbronner Str. 86,70191,Stuttgart,https://www.akad.de/?wkz=7007AA,48.798732650000005,9.189108225718751
Stuttgart AkdBK,Staatliche Akademie der Bildenden Künste Stuttgart,Künstlerische Hochschulen,öffentlich-rechtlich,Baden-Württemberg,801,1761,True,True,Am Weißenhof 1,70191,Stuttgart,http://www.abk-stuttgart.de,48.798732650000005,9.189108225718751
Stuttgart DH,Duale Hochschule Baden-Württemberg,Hochschulen eigenen Typs,öffentlich-rechtlich,Baden-Württemberg,32647,2009,False,False,Friedrichstraße 14.,70174,Stuttgart,http://www.dhbw.de,48.782079249999995,9.171410041022973
Stuttgart H,Hochschule für Technik Stuttgart,Fachhochschulen / HAW,öffentlich-rechtlich,Baden-Württemberg,3945,1832,False,False,Schellingstraße 24,70174,Stuttgart,http://www.hft-stuttgart.de,48.782079249999995,9.171410041022973
Stuttgart HdM,Hochschule der Medien Stuttgart,Fachhochschulen / HAW,öffentlich-rechtlich,Baden-Württemberg,5513,1903,False,False,Nobelstraße 10,70569,Stuttgart,http://www.hdm-stuttgart.de,48.744592,9.089116792062732
Stuttgart HfK+G,Hochschule für Kommunikation und Gestaltung,Fachhochschulen / HAW,"privat, staatlich anerkannt",Baden-Württemberg,59,2013,False,False,Kölner Straße 38,70376,Stuttgart,www.hfk-bw.de,48.81839295,9.206686445623081
Stuttgart HfM,Staatliche Hochschule für Musik und Darstellende Kunst Stuttgart,Künstlerische Hochschulen,öffentlich-rechtlich,Baden-Württemberg,757,1857,True,False,Urbanstraße 25,70182,Stuttgart,http://www.hmdk-stuttgart.de,48.776785849999996,9.187350759111151
Stuttgart MAW,Hochschule Macromedia - staatlich anerkannte Hochschule für angewandte Wissenschaften der Macromedia GmbH mit Sitz in Stuttgart,Fachhochschulen / HAW,"privat, staatlich anerkannt",Baden-Württemberg,5190,2006,False,False,Naststraße 11/Im Römerkastell,70376,Stuttgart,http://www.macromedia-fachhochschule.de/,48.81839295,9.206686445623081
Stuttgart MediaAk,media Akademie - Hochschule Stuttgart,Fachhochschulen / HAW,"privat, staatlich anerkannt",Baden-Württemberg,13,2015,False,False,Tübinger Str. 12-16,70178,Stuttgart,www.media-hs.de,48.7683505,9.166504301173134
Stuttgart MerzAk,"Merz Akademie Hochschule für Gestaltung, Kunst und Medien, Stuttgart - Staatlich anerkannt",Fachhochschulen / HAW,"privat, staatlich anerkannt",Baden-Württemberg,208,1985,False,False,Teckstraße 58,70190,Stuttgart,http://www.merz-akademie.de,48.7900887,9.20199254683786
Stuttgart U,Universität Stuttgart,Universitäten,öffentlich-rechtlich,Baden-Württemberg,21141,1829,True,True,Keplerstraße 7,70174,Stuttgart,http://www.uni-stuttgart.de,48.782079249999995,9.171410041022973
Stuttgart U Waldorf,Freie Hochschule Stuttgart - Seminar für Waldorfpädagogik. Staatlich anerkannte wissenschaftliche Hochschule.,Universitäten,"privat, staatlich anerkannt",Baden-Württemberg,304,1919,False,False,Haußmannstraße 44a,70188,Stuttgart,http://www.freie-hochschule-stuttgart.de,48.7861393,9.215098631678654
Stuttgart VWA,VWA-Hochschule für berufsbegleitendes Studium,Fachhochschulen / HAW,"privat, staatlich anerkannt",Baden-Württemberg,33,2013,False,False,Wolframstraße 32,70191,Stuttgart,https://www.vwa-hochschule.de,48.798732650000005,9.189108225718751
Südwestfalen FH,Fachhochschule Südwestfalen,Fachhochschulen / HAW,öffentlich-rechtlich,Nordrhein-Westfalen,10995,2002,False,False,Baarstraße 6,58636,Iserlohn,https://www.fh-swf.de,51.38983915,7.721685003745058
Thüringen VerwH (Verw),Thüringer Fachhochschule für öffentliche Verwaltung,Verwaltungshochschule,öffentlich-rechtlich,Thüringen,641,1994,False,False,Bahnhofstraße 12,99867,Gotha,https://bildungszentrum.thueringen.de/thueringer-fachhochschule-fuer-oeffentliche-verwaltung,50.94131915,10.70838373100138
Trier H,Hochschule Trier - Trier University of Applied Sciences,Fachhochschulen / HAW,öffentlich-rechtlich,Rheinland-Pfalz,6688,1971,False,False,Schneidershof,54293,Trier,http://www.hochschule-trier.de/,49.80529835,6.682314675362319
Trier ThFak,Theologische Fakultät Trier,Universitäten,"kirchlich, staatlich anerkannt",Rheinland-Pfalz,150,1950,True,True,Universitätsring 19,54296,Trier,https://theologie-trier.de/,49.733987850000005,6.682342110333119
Trier U,Universität Trier,Universitäten,öffentlich-rechtlich,Rheinland-Pfalz,10518,1970,True,True,Universitätsring 15,54296,Trier,http://www.uni-trier.de,49.733987850000005,6.682342110333119
Trossingen HfM,Staatliche Hochschule für Musik Trossingen,Künstlerische Hochschulen,öffentlich-rechtlich,Baden-Württemberg,419,1944,True,False,Schultheiß-Koch-Platz 3,78647,Trossingen,https://www.hfm-trossingen.de,48.0715517,8.637384527787532
Tübingen HfKiM,Hochschule für Kirchenmusik der Evangelischen Landeskirche in Württemberg,Künstlerische Hochschulen,"kirchlich, staatlich anerkannt",Baden-Württemberg,19,1945,False,False,Gartenstraße 12,72074,Tübingen,http://www.kirchenmusikhochschule.de,48.55576565,9.092406281009229
Tübingen U,Eberhard Karls Universität Tübingen,Universitäten,öffentlich-rechtlich,Baden-Württemberg,28239,1477,True,True,Geschwister-Scholl-Platz,72074,Tübingen,http://www.uni-tuebingen.de,48.55576565,9.092406281009229
Ulm TH,Technische Hochschule Ulm,Fachhochschulen / HAW,öffentlich-rechtlich,Baden-Württemberg,2966,1960,False,False,Prittwitzstraße 10,89075,Ulm,http://www.thu.de,48.4194165,10.007672310709742
Ulm U,Universität Ulm,Universitäten,öffentlich-rechtlich,Baden-Württemberg,9978,1967,True,True,Albert-Einstein-Allee 11,89081,Ulm,http://www.uni-ulm.de,48.43936165,9.971446987171708
Vallendar VP-Uni,Vinzenz Pallotti University - kirchlich und staatlich anerkannte wissenschaftliche Hochschule in freier Trägerschaft,Universitäten,"kirchlich, staatlich anerkannt",Rheinland-Pfalz,254,1896,True,True,Pallottistraße 3,56179,Vallendar,https://vp-uni.de/,50.405619349999995,7.643884262188641
Vallendar WHU,WHU - Otto Beisheim School of Management,Universitäten,"privat, staatlich anerkannt",Rheinland-Pfalz,1961,1984,True,True,Burgplatz 2,56179,Vallendar,http://www.whu.edu,50.405619349999995,7.643884262188641
Vechta/Diepholz PHWT,Private Hochschule für Wirtschaft und Technik Vechta/Diepholz,Fachhochschulen / HAW,"privat, staatlich anerkannt",Niedersachsen,517,1998,False,False,Rombergstraße 40,49377,Vechta,https://www.phwt.de,52.743725,8.290336248856054
Vechta U,Universität Vechta,Universitäten,öffentlich-rechtlich,Niedersachsen,3714,1995,True,True,Driverstraße 22,49377,Vechta,http://www.uni-vechta.de,52.743725,8.290336248856054
Wedel FH,Fachhochschule Wedel,Fachhochschulen / HAW,"privat, staatlich anerkannt",Schleswig-Holstein,1128,1948,False,False,Feldstraße 143,22880,Wedel,http://www.fh-wedel.de,53.588184749999996,9.693906230614932
Weihenstephan-Triesdorf H,Hochschule für angewandte Wissenschaften Weihenstephan-Triesdorf,Fachhochschulen / HAW,öffentlich-rechtlich,Bayern,5692,1971,False,False,Am Hofgarten 4,85354,Freising,https://www.hswt.de/,48.38981975,11.693689641017325
Weimar HfM,Hochschule für Musik Franz Liszt Weimar,Künstlerische Hochschulen,öffentlich-rechtlich,Thüringen,752,1872,True,False,Platz der Demokratie 2/3,99423,Weimar,http://www.hfm-weimar.de,50.981060150000005,11.3213362634799
Weimar U,Bauhaus-Universität Weimar,Universitäten,öffentlich-rechtlich,Thüringen,3955,1860,True,True,Geschwister-Scholl-Straße 8,99423,Weimar,http://www.uni-weimar.de/studium,50.981060150000005,11.3213362634799
Weingarten PH,Pädagogische Hochschule Weingarten,Universitäten,öffentlich-rechtlich,Baden-Württemberg,3307,1949,True,True,Kirchplatz 2,88250,Weingarten,https://www.ph-weingarten.de/die-ph-weingarten/,47.80484995,9.640100368299736
Weserbergland H,Hochschule Weserbergland,Fachhochschulen / HAW,"privat, staatlich anerkannt",Niedersachsen,443,2010,False,False,Am Stockhof 2,31785,Hameln,https://www.hsw-hameln.de,52.1054558,9.362558183546257
Westfälische H,"Westfälische Hochschule Gelsenkirchen, Bocholt, Recklinghausen",Fachhochschulen / HAW,öffentlich-rechtlich,Nordrhein-Westfalen,7620,1992,False,False,Neidenburger Straße 43,45897,Gelsenkirchen,http://www.w-hs.de,51.55455105,7.053647801467427
Westküste FH,"Fachhochschule Westküste, Hochschule für Wirtschaft und Technik",Fachhochschulen / HAW,öffentlich-rechtlich,Schleswig-Holstein,1572,1994,False,False,Fritz-Thiedemann-Ring 20,25746,Heide,http://www.fh-westkueste.de,54.202429550000005,9.103543562903297
Wiesbaden CFH,Charlotte Fresenius Hochschule,Universitäten,"privat, staatlich anerkannt",Hessen,575,2021,False,False,Moritzstr. 17a,65185,Wiesbaden,https://www.charlotte-fresenius-uni.de/?crmid=aBbWvOcHiAaAaAaA,50.07544145,8.240990075528426
Wiesbaden EBS,EBS Universität für Wirtschaft und Recht,Universitäten,"privat, staatlich anerkannt",Hessen,1719,1971,True,True,Gustav-Stresemann-Ring 3,65189,Wiesbaden,http://www.ebs.edu,50.07361305,8.260991418149572
Wildau TH,Technische Hochschule Wildau,Fachhochschulen / HAW,öffentlich-rechtlich,Brandenburg,3357,1991,False,False,Hochschulring 1,15745,Wildau,http://www.th-wildau.de/,52.32392075,13.617176258184438
Wilhelmshaven/Oldenburg/Elsfleth H,Jade Hochschule -  Wilhelmshaven/Oldenburg/Elsfleth,Fachhochschulen / HAW,öffentlich-rechtlich,Niedersachsen,6399,2009,False,False,Friedrich-Paffrath-Straße 101,26389,Wilhelmshaven,http://www.jade-hs.de,53.5320757,8.064643573328507
Wismar H,"Hochschule Wismar - University of Applied Sciences: Technology, Business and Design",Fachhochschulen / HAW,öffentlich-rechtlich,Mecklenburg-Vorpommern,8048,1908,False,False,Philipp-Müller-Straße 14,23966,Wismar,https://www.hs-wismar.de,53.826798749999995,11.333867385193303
Witten/ Herdecke U,Private Universität Witten/Herdecke gGmbH,Universitäten,"privat, staatlich anerkannt",Nordrhein-Westfalen,3011,1982,True,True,Alfred-Herrhausen-Str. 50,58448,Witten,https://www.uni-wh.de/,51.4389,7.3359
Worms H,"Hochschule Worms, University of Applied Sciences",Fachhochschulen / HAW,öffentlich-rechtlich,Rheinland-Pfalz,3391,1996,False,False,Erenburgerstr. 19,67549,Worms,http://www.hs-worms.de,49.637887,8.326535363431617
Wuppertal KiH,Kirchliche Hochschule Wuppertal,Universitäten,"kirchlich, staatlich anerkannt",Nordrhein-Westfalen,177,1935,True,True,Missionsstraße 9 a/b,42285,Wuppertal,https://www.kiho-wuppertal.de/,51.25786215,7.175665704698492
Wuppertal U,Bergische Universität Wuppertal,Universitäten,öffentlich-rechtlich,Nordrhein-Westfalen,21289,1972,True,True,Gaußstraße 20,42119,Wuppertal,https://www.uni-wuppertal.de/de/,51.24390085,7.157733558784253
Würzburg HfM,Hochschule für Musik Würzburg,Künstlerische Hochschulen,öffentlich-rechtlich,Bayern,530,1804,True,False,Hofstallstraße 6-8,97070,Würzburg,http://www.hfm-wuerzburg.de,49.793947349999996,9.935326587151717
Würzburg-Schweinfurt TH,Technische Hochschule Würzburg-Schweinfurt,Fachhochschulen / HAW,öffentlich-rechtlich,Bayern,9250,1971,False,False,Münzstraße 12,97070,Würzburg,http://www.thws.de,49.793947349999996,9.935326587151717
Würzburg U,Julius-Maximilians-Universität Würzburg,Universitäten,öffentlich-rechtlich,Bayern,26126,1402,True,True,Sanderring 2,97070,Würzburg,http://www.uni-wuerzburg.de,49.793947349999996,9.935326587151717
Zittau/ Görlitz H,Hochschule Zittau/Görlitz,Fachhochschulen / HAW,öffentlich-rechtlich,Sachsen,2532,1992,False,False,Theodor-Körner-Allee 16,02763,Zittau,http://www.hszg.de/,50.89548585,14.805850246498313
Zwickau H,Westsächsische Hochschule Zwickau,Fachhochschulen / HAW,öffentlich-rechtlich,Sachsen,2931,1897,False,False,Kornmarkt 1,08056,Zwickau,http://www.fh-zwickau.de,50.70641405,12.473511544724293
